{"type": "FeatureCollection", "features": [{"type": "Feature", "geometry": {"type": "Point", "coordinates": [32.958586, 60.968814]}, "properties": {"name": "ПС-41 Олонец", "Unom": 110, "address": "ОРЭС"}}, {"type": "Feature", "geometry": {"type": "Point", "coordinates": [33.200436, 61.263459]}, "properties": {"name": "ПС-40 Коткозеро", "Unom": 110, "address": "ОРЭС"}}, {"type": "Feature", "geometry": {"type": "Point", "coordinates": [32.65852, 61.01134]}, "properties": {"name": "ПС-12П Ильинский", "Unom": 35, "address": "ОРЭС"}}, {"type": "Feature", "geometry": {"type": "Point", "coordinates": [32.39269, 61.18858]}, "properties": {"name": "ПС-13П Видлица", "Unom": 35, "address": "ОРЭС"}}, {"type": "Feature", "geometry": {"type": "Point", "coordinates": [32.83911, 61.00392]}, "properties": {"name": "ПС-14П Тукса", "Unom": 35, "address": "ОРЭС"}}, {"type": "Feature", "geometry": {"type": "Point", "coordinates": [33.73349, 61.01187]}, "properties": {"name": "ПС-15П Михайловское", "Unom": 35, "address": "ОРЭС"}}, {"type": "Feature", "geometry": {"type": "Point", "coordinates": [33.21021, 60.98894]}, "properties": {"name": "ПС-50П Куйтежа", "Unom": 35, "address": "ОРЭС"}}, {"type": "Feature", "geometry": {"type": "Point", "coordinates": [32.84752, 61.01057]}, "properties": {"name": "№ 414 Тукса деревня", "Unom": 10, "address": "ОРЭС"}}, {"type": "Feature", "geometry": {"type": "Point", "coordinates": [32.385033, 61.192783]}, "properties": {"name": "ТП-379 Видлица ул. Набережная", "Unom": 10, "address": "ОРЭС"}}, {"type": "Feature", "geometry": {"type": "Point", "coordinates": [32.385233, 61.176617]}, "properties": {"name": "ТП-409 Рыбопункт", "Unom": 10, "address": "ОРЭС"}}, {"type": "Feature", "geometry": {"type": "Point", "coordinates": [32.39083, 61.18919]}, "properties": {"name": "ТП-2304 Видлица, ул. Набережная", "Unom": 10, "address": "ОРЭС"}}, {"type": "Feature", "geometry": {"type": "Point", "coordinates": [32.393167, 61.184283]}, "properties": {"name": "ТП-351 Поселок", "Unom": 10, "address": "ОРЭС"}}, {"type": "Feature", "geometry": {"type": "Point", "coordinates": [32.3935, 61.1956]}, "properties": {"name": "ТП-435 Магазин", "Unom": 10, "address": "ОРЭС"}}, {"type": "Feature", "geometry": {"type": "Point", "coordinates": [32.3954, 61.1862]}, "properties": {"name": "ТП-383 Детсад", "Unom": 10, "address": "ОРЭС"}}, {"type": "Feature", "geometry": {"type": "Point", "coordinates": [32.3959, 61.1905]}, "properties": {"name": "ТП-380 с.Видлица (клуб)", "Unom": 10, "address": "ОРЭС"}}, {"type": "Feature", "geometry": {"type": "Point", "coordinates": [32.39609, 61.1885]}, "properties": {"name": "ТП-434 Видлица управтодор", "Unom": 10, "address": "ОРЭС"}}, {"type": "Feature", "geometry": {"type": "Point", "coordinates": [32.39626, 61.18837]}, "properties": {"name": "ТП-474 Видлица Кафе", "Unom": 10, "address": "ОРЭС"}}, {"type": "Feature", "geometry": {"type": "Point", "coordinates": [32.39757, 61.18713]}, "properties": {"name": "ТП-382 ул.Десанта", "Unom": 10, "address": "ОРЭС"}}, {"type": "Feature", "geometry": {"type": "Point", "coordinates": [32.3985, 61.1963]}, "properties": {"name": "ТП-378", "Unom": 10, "address": "ОРЭС"}}, {"type": "Feature", "geometry": {"type": "Point", "coordinates": [32.4029, 61.1897]}, "properties": {"name": "ТП-433 Школа", "Unom": 10, "address": "ОРЭС"}}, {"type": "Feature", "geometry": {"type": "Point", "coordinates": [32.40345, 61.18613]}, "properties": {"name": "ТП-381 Мастерские", "Unom": 10, "address": "ОРЭС"}}, {"type": "Feature", "geometry": {"type": "Point", "coordinates": [32.4051, 61.2044]}, "properties": {"name": "ТП-376 ФКРС", "Unom": 10, "address": "ОРЭС"}}, {"type": "Feature", "geometry": {"type": "Point", "coordinates": [32.409, 61.1854]}, "properties": {"name": "ТП-496 Стройцех", "Unom": 10, "address": "ОРЭС"}}, {"type": "Feature", "geometry": {"type": "Point", "coordinates": [32.41276, 61.19568]}, "properties": {"name": "ТП-468 с.Видлица Гараж больницы", "Unom": 10, "address": "ОРЭС"}}, {"type": "Feature", "geometry": {"type": "Point", "coordinates": [32.4204, 61.1962]}, "properties": {"name": "ТП-473 Насосная", "Unom": 10, "address": "ОРЭС"}}, {"type": "Feature", "geometry": {"type": "Point", "coordinates": [32.4221, 61.1849]}, "properties": {"name": "ТП-384 Звероферма", "Unom": 10, "address": "ОРЭС"}}, {"type": "Feature", "geometry": {"type": "Point", "coordinates": [32.4266, 61.1842]}, "properties": {"name": "ТП-456 Холодильник", "Unom": 10, "address": "ОРЭС"}}, {"type": "Feature", "geometry": {"type": "Point", "coordinates": [32.4286, 61.18196]}, "properties": {"name": "ТП-500 Свинарник", "Unom": 10, "address": "ОРЭС"}}, {"type": "Feature", "geometry": {"type": "Point", "coordinates": [32.4466, 61.1926]}, "properties": {"name": "ТП-385 Гавриловка", "Unom": 10, "address": "ОРЭС"}}, {"type": "Feature", "geometry": {"type": "Point", "coordinates": [32.4617, 61.1897]}, "properties": {"name": "ТП-386 Семен-Наволок", "Unom": 10, "address": "ОРЭС"}}, {"type": "Feature", "geometry": {"type": "Point", "coordinates": [32.46423, 61.3094]}, "properties": {"name": "ТП-377 Большие Горы", "Unom": 10, "address": "ОРЭС"}}, {"type": "Feature", "geometry": {"type": "Point", "coordinates": [32.46622, 61.30635]}, "properties": {"name": "ТП-477 Большие Горы 2", "Unom": 10, "address": "ОРЭС"}}, {"type": "Feature", "geometry": {"type": "Point", "coordinates": [32.4732, 61.1899]}, "properties": {"name": "ТП-387 Верхняя Видлица", "Unom": 10, "address": "ОРЭС"}}, {"type": "Feature", "geometry": {"type": "Point", "coordinates": [32.48588, 61.26547]}, "properties": {"name": "ТП-352 Видлица Газпром КУ", "Unom": 10, "address": "ОРЭС"}}, {"type": "Feature", "geometry": {"type": "Point", "coordinates": [32.55035, 61.11445]}, "properties": {"name": "№2316 Тулокса дачи", "Unom": 10, "address": "ОРЭС"}}, {"type": "Feature", "geometry": {"type": "Point", "coordinates": [32.56425, 61.116883]}, "properties": {"name": "ТП-346 Устье Тулоксы", "Unom": 10, "address": "ОРЭС"}}, {"type": "Feature", "geometry": {"type": "Point", "coordinates": [32.57285, 61.12016]}, "properties": {"name": "ТП-374 Тулокса АТС", "Unom": 10, "address": "ОРЭС"}}, {"type": "Feature", "geometry": {"type": "Point", "coordinates": [32.57579, 61.11994]}, "properties": {"name": "ТП-438 Тулокса ул.Речная", "Unom": 10, "address": "ОРЭС"}}, {"type": "Feature", "geometry": {"type": "Point", "coordinates": [32.586425, 61.118275]}, "properties": {"name": "ТП-355 с/т Отдых", "Unom": 10, "address": "ОРЭС"}}, {"type": "Feature", "geometry": {"type": "Point", "coordinates": [32.59495, 61.12023]}, "properties": {"name": "ТП-373 Школа", "Unom": 10, "address": "ОРЭС"}}, {"type": "Feature", "geometry": {"type": "Point", "coordinates": [32.61099, 61.1197]}, "properties": {"name": "ТП-400 Тулокса", "Unom": 10, "address": "ОРЭС"}}, {"type": "Feature", "geometry": {"type": "Point", "coordinates": [32.63003, 61.12203]}, "properties": {"name": "ТП-372 Тулокса ФКРС", "Unom": 10, "address": "ОРЭС"}}, {"type": "Feature", "geometry": {"type": "Point", "coordinates": [32.6391, 61.04602]}, "properties": {"name": "ТП-371 Нурмойла", "Unom": 10, "address": "ОРЭС"}}, {"type": "Feature", "geometry": {"type": "Point", "coordinates": [32.64247, 61.12448]}, "properties": {"name": "ТП-354 Старая Тулокса", "Unom": 10, "address": "ОРЭС"}}, {"type": "Feature", "geometry": {"type": "Point", "coordinates": [32.64691, 61.04396]}, "properties": {"name": "ТП-330 Нурмойла магазин", "Unom": 10, "address": "ОРЭС"}}, {"type": "Feature", "geometry": {"type": "Point", "coordinates": [32.64895, 61.02556]}, "properties": {"name": "ТП-445 старый лесозавод", "Unom": 10, "address": "ОРЭС"}}, {"type": "Feature", "geometry": {"type": "Point", "coordinates": [32.65072, 61.02464]}, "properties": {"name": "ТП-446", "Unom": 10, "address": "ОРЭС"}}, {"type": "Feature", "geometry": {"type": "Point", "coordinates": [32.65113, 61.05219]}, "properties": {"name": "ТП-2311 Нурмойла Управтодор", "Unom": 10, "address": "ОРЭС"}}, {"type": "Feature", "geometry": {"type": "Point", "coordinates": [32.67047, 61.39768]}, "properties": {"name": "ТП-8434", "Unom": 10, "address": "ОРЭС"}}, {"type": "Feature", "geometry": {"type": "Point", "coordinates": [32.67793, 61.01361]}, "properties": {"name": "ТП-470 Насосная", "Unom": 10, "address": "ОРЭС"}}, {"type": "Feature", "geometry": {"type": "Point", "coordinates": [32.68909, 61.01282]}, "properties": {"name": "ТП-461 Детсад", "Unom": 10, "address": "ОРЭС"}}, {"type": "Feature", "geometry": {"type": "Point", "coordinates": [32.691995, 61.009885]}, "properties": {"name": "ТП-440 Склад", "Unom": 10, "address": "ОРЭС"}}, {"type": "Feature", "geometry": {"type": "Point", "coordinates": [32.694635, 61.012575]}, "properties": {"name": "ТП-369 Котчила", "Unom": 10, "address": "ОРЭС"}}, {"type": "Feature", "geometry": {"type": "Point", "coordinates": [32.696655, 61.026415]}, "properties": {"name": "ТП-441 Химбаза", "Unom": 10, "address": "ОРЭС"}}, {"type": "Feature", "geometry": {"type": "Point", "coordinates": [32.69738, 61.04078]}, "properties": {"name": "ТП-466 Картофелехранилище", "Unom": 10, "address": "ОРЭС"}}, {"type": "Feature", "geometry": {"type": "Point", "coordinates": [32.69793, 61.01428]}, "properties": {"name": "ТП-469 Очистные Билайн", "Unom": 10, "address": "ОРЭС"}}, {"type": "Feature", "geometry": {"type": "Point", "coordinates": [32.701455, 61.003225]}, "properties": {"name": "ТП-368 Антула", "Unom": 10, "address": "ОРЭС"}}, {"type": "Feature", "geometry": {"type": "Point", "coordinates": [32.702155, 61.040325]}, "properties": {"name": "ТП-370 Пилорама", "Unom": 10, "address": "ОРЭС"}}, {"type": "Feature", "geometry": {"type": "Point", "coordinates": [32.705645, 61.04375]}, "properties": {"name": "ТП-453 Старый  ФКРС", "Unom": 10, "address": "ОРЭС"}}, {"type": "Feature", "geometry": {"type": "Point", "coordinates": [32.70805, 61.00932]}, "properties": {"name": "ТП-485 Бычник", "Unom": 10, "address": "ОРЭС"}}, {"type": "Feature", "geometry": {"type": "Point", "coordinates": [32.70985, 61.043075]}, "properties": {"name": "ТП-348 Старый  ФКРС", "Unom": 10, "address": "ОРЭС"}}, {"type": "Feature", "geometry": {"type": "Point", "coordinates": [32.71677, 61.20771]}, "properties": {"name": "ТП-398 Кимусельга", "Unom": 10, "address": "ОРЭС"}}, {"type": "Feature", "geometry": {"type": "Point", "coordinates": [32.71702, 61.21993]}, "properties": {"name": "ТП-396 Кукшегора", "Unom": 10, "address": "ОРЭС"}}, {"type": "Feature", "geometry": {"type": "Point", "coordinates": [32.71993, 60.99754]}, "properties": {"name": "ТП-462 Зивчальская", "Unom": 10, "address": "ОРЭС"}}, {"type": "Feature", "geometry": {"type": "Point", "coordinates": [32.73994, 61.16357]}, "properties": {"name": "МТП № 487 Сяндеба-2", "Unom": 10, "address": "ОРЭС"}}, {"type": "Feature", "geometry": {"type": "Point", "coordinates": [32.741085, 60.988665]}, "properties": {"name": "ТП-411 Герпеля", "Unom": 10, "address": "ОРЭС"}}, {"type": "Feature", "geometry": {"type": "Point", "coordinates": [32.74735, 61.22752]}, "properties": {"name": "ТП-397 Умоста", "Unom": 10, "address": "ОРЭС"}}, {"type": "Feature", "geometry": {"type": "Point", "coordinates": [32.74806, 61.16619]}, "properties": {"name": "ТП-399 Сяндеба", "Unom": 10, "address": "ОРЭС"}}, {"type": "Feature", "geometry": {"type": "Point", "coordinates": [32.754025, 60.985445]}, "properties": {"name": "ТП-367 Большаково", "Unom": 10, "address": "ОРЭС"}}, {"type": "Feature", "geometry": {"type": "Point", "coordinates": [32.75622, 60.98363]}, "properties": {"name": "ТП-452 Еройла ГРП", "Unom": 10, "address": "ОРЭС"}}, {"type": "Feature", "geometry": {"type": "Point", "coordinates": [32.77107, 60.97921]}, "properties": {"name": "ТП-449 Еройла", "Unom": 10, "address": "ОРЭС"}}, {"type": "Feature", "geometry": {"type": "Point", "coordinates": [32.78134, 61.1614]}, "properties": {"name": "ТП-432 Дача Сербина", "Unom": 10, "address": "ОРЭС"}}, {"type": "Feature", "geometry": {"type": "Point", "coordinates": [32.78274, 61.15758]}, "properties": {"name": "ТП-395 Важеозерский монастырь", "Unom": 10, "address": "ОРЭС"}}, {"type": "Feature", "geometry": {"type": "Point", "coordinates": [32.78739, 60.97634]}, "properties": {"name": "ТП-489 Алексала ГРП", "Unom": 10, "address": "ОРЭС"}}, {"type": "Feature", "geometry": {"type": "Point", "coordinates": [32.7894, 61.15537]}, "properties": {"name": "КТП-394 Сяндеба Дачи", "Unom": 10, "address": "ОРЭС"}}, {"type": "Feature", "geometry": {"type": "Point", "coordinates": [32.79055, 60.975783]}, "properties": {"name": "ТП-450 Алексала ФКРС", "Unom": 10, "address": "ОРЭС"}}, {"type": "Feature", "geometry": {"type": "Point", "coordinates": [32.791433, 60.976455]}, "properties": {"name": "ТП-366 Алексала деревня", "Unom": 10, "address": "ОРЭС"}}, {"type": "Feature", "geometry": {"type": "Point", "coordinates": [32.79557, 60.97648]}, "properties": {"name": "ТП-482 ФКРС", "Unom": 10, "address": "ОРЭС"}}, {"type": "Feature", "geometry": {"type": "Point", "coordinates": [32.79724, 60.97699]}, "properties": {"name": "ТП-465 Алексала телятник", "Unom": 10, "address": "ОРЭС"}}, {"type": "Feature", "geometry": {"type": "Point", "coordinates": [32.79874, 61.19122]}, "properties": {"name": "ТП-455 Гушкала Газпром КУ", "Unom": 10, "address": "ОРЭС"}}, {"type": "Feature", "geometry": {"type": "Point", "coordinates": [32.812755, 60.979283]}, "properties": {"name": "ТП-324 Охот. хоз-во ООО \"Дружба\"", "Unom": 10, "address": "ОРЭС"}}, {"type": "Feature", "geometry": {"type": "Point", "coordinates": [32.82908, 60.99391]}, "properties": {"name": "ТП-363 Юккула", "Unom": 10, "address": "ОРЭС"}}, {"type": "Feature", "geometry": {"type": "Point", "coordinates": [32.83027, 60.99706]}, "properties": {"name": "МТП-463 Юккула-2", "Unom": 10, "address": "ОРЭС"}}, {"type": "Feature", "geometry": {"type": "Point", "coordinates": [32.83339, 60.98889]}, "properties": {"name": "ТП-317 Гиттойла", "Unom": 10, "address": "ОРЭС"}}, {"type": "Feature", "geometry": {"type": "Point", "coordinates": [32.83804, 61.0174]}, "properties": {"name": "ТП-364 Валойла", "Unom": 10, "address": "ОРЭС"}}, {"type": "Feature", "geometry": {"type": "Point", "coordinates": [32.83879, 61.00135]}, "properties": {"name": "ТП-415 Гараж", "Unom": 10, "address": "ОРЭС"}}, {"type": "Feature", "geometry": {"type": "Point", "coordinates": [32.84039, 61.00159]}, "properties": {"name": "ТП-484 Гараж", "Unom": 10, "address": "ОРЭС"}}, {"type": "Feature", "geometry": {"type": "Point", "coordinates": [32.84122, 61.01274]}, "properties": {"name": "№ 464 Кормоцех", "Unom": 10, "address": "ОРЭС"}}, {"type": "Feature", "geometry": {"type": "Point", "coordinates": [32.84129, 61.03278]}, "properties": {"name": "ТП-475 Валойла-2", "Unom": 10, "address": "ОРЭС"}}, {"type": "Feature", "geometry": {"type": "Point", "coordinates": [32.841355, 61.02535]}, "properties": {"name": "ТП-365 Валойла", "Unom": 10, "address": "ОРЭС"}}, {"type": "Feature", "geometry": {"type": "Point", "coordinates": [32.843365, 61.009615]}, "properties": {"name": "№ 427 ФКРС", "Unom": 10, "address": "ОРЭС"}}, {"type": "Feature", "geometry": {"type": "Point", "coordinates": [32.84691, 60.98282]}, "properties": {"name": "ТП-425 Капшойла ГРП", "Unom": 10, "address": "ОРЭС"}}, {"type": "Feature", "geometry": {"type": "Point", "coordinates": [32.84719, 61.02842]}, "properties": {"name": "ТП-476 Телятник", "Unom": 10, "address": "ОРЭС"}}, {"type": "Feature", "geometry": {"type": "Point", "coordinates": [32.84841, 61.00745]}, "properties": {"name": "ТП-439 д.Тукса ул.Новая", "Unom": 10, "address": "ОРЭС"}}, {"type": "Feature", "geometry": {"type": "Point", "coordinates": [32.85048, 61.01116]}, "properties": {"name": "ТП-483 Тукса ГРП", "Unom": 10, "address": "ОРЭС"}}, {"type": "Feature", "geometry": {"type": "Point", "coordinates": [32.85221, 61.00767]}, "properties": {"name": "№ 457 Детсад", "Unom": 10, "address": "ОРЭС"}}, {"type": "Feature", "geometry": {"type": "Point", "coordinates": [32.85372, 60.98493]}, "properties": {"name": "ТП-361 Капшойла", "Unom": 10, "address": "ОРЭС"}}, {"type": "Feature", "geometry": {"type": "Point", "coordinates": [32.882455, 60.978025]}, "properties": {"name": "ТП-360 Рыпушкалица", "Unom": 10, "address": "ОРЭС"}}, {"type": "Feature", "geometry": {"type": "Point", "coordinates": [32.883035, 60.980565]}, "properties": {"name": "ТП-375 Иммалица", "Unom": 10, "address": "ОРЭС"}}, {"type": "Feature", "geometry": {"type": "Point", "coordinates": [32.89848, 60.97068]}, "properties": {"name": "КТП-344 Рыпушкалицы Полевая", "Unom": 10, "address": "ОРЭС"}}, {"type": "Feature", "geometry": {"type": "Point", "coordinates": [32.90524, 60.9686]}, "properties": {"name": "ТП-359 Рыпушкалицы гараж", "Unom": 10, "address": "ОРЭС"}}, {"type": "Feature", "geometry": {"type": "Point", "coordinates": [32.90667, 60.97112]}, "properties": {"name": "ТП-342 Школа", "Unom": 10, "address": "ОРЭС"}}, {"type": "Feature", "geometry": {"type": "Point", "coordinates": [32.90775, 60.96474]}, "properties": {"name": "ТП-343 Рыпушкалицы ФКРС", "Unom": 10, "address": "ОРЭС"}}, {"type": "Feature", "geometry": {"type": "Point", "coordinates": [32.90887, 60.97194]}, "properties": {"name": "КТП-341 Комс насосная", "Unom": 10, "address": "ОРЭС"}}, {"type": "Feature", "geometry": {"type": "Point", "coordinates": [32.90909, 60.96648]}, "properties": {"name": "ТП-426 Рыпушкалицы ГРП", "Unom": 10, "address": "ОРЭС"}}, {"type": "Feature", "geometry": {"type": "Point", "coordinates": [32.91699, 61.07729]}, "properties": {"name": "ТП-349 Нурмолица дачи", "Unom": 10, "address": "ОРЭС"}}, {"type": "Feature", "geometry": {"type": "Point", "coordinates": [32.91738, 60.81911]}, "properties": {"name": "ТП-308 Обжа", "Unom": 10, "address": "ОРЭС"}}, {"type": "Feature", "geometry": {"type": "Point", "coordinates": [32.92597, 61.07695]}, "properties": {"name": "МТП - 393 Нурмолица ГРП", "Unom": 10, "address": "ОРЭС"}}, {"type": "Feature", "geometry": {"type": "Point", "coordinates": [32.92603, 60.97477]}, "properties": {"name": "ТП-358 Кунилица", "Unom": 10, "address": "ОРЭС"}}, {"type": "Feature", "geometry": {"type": "Point", "coordinates": [32.92635, 61.07238]}, "properties": {"name": "ТП-327 Нурмолица", "Unom": 10, "address": "ОРЭС"}}, {"type": "Feature", "geometry": {"type": "Point", "coordinates": [32.92796, 60.98443]}, "properties": {"name": "ТП-362 Татчалица", "Unom": 10, "address": "ОРЭС"}}, {"type": "Feature", "geometry": {"type": "Point", "coordinates": [32.92963, 60.98052]}, "properties": {"name": "ТП-490 Путилица деревня", "Unom": 10, "address": "ОРЭС"}}, {"type": "Feature", "geometry": {"type": "Point", "coordinates": [32.933645, 60.978615]}, "properties": {"name": "ТП-356 Путилица пилорама", "Unom": 10, "address": "ОРЭС"}}, {"type": "Feature", "geometry": {"type": "Point", "coordinates": [32.93525, 60.97598]}, "properties": {"name": "ТП-357 Путилица", "Unom": 10, "address": "ОРЭС"}}, {"type": "Feature", "geometry": {"type": "Point", "coordinates": [32.943385, 60.974965]}, "properties": {"name": "ТП-302 ул. Молодежная", "Unom": 10, "address": "ОРЭС"}}, {"type": "Feature", "geometry": {"type": "Point", "coordinates": [32.94831, 60.9724]}, "properties": {"name": "ТП-492 Семенов.станция", "Unom": 10, "address": "ОРЭС"}}, {"type": "Feature", "geometry": {"type": "Point", "coordinates": [32.94908, 60.9825]}, "properties": {"name": "ТП-350 Татчалица поселок", "Unom": 10, "address": "ОРЭС"}}, {"type": "Feature", "geometry": {"type": "Point", "coordinates": [32.95403, 61.08248]}, "properties": {"name": "МТП-319 Пертисельга", "Unom": 10, "address": "ОРЭС"}}, {"type": "Feature", "geometry": {"type": "Point", "coordinates": [32.9544, 61.06158]}, "properties": {"name": "ТП-325 КЭЧ", "Unom": 10, "address": "ОРЭС"}}, {"type": "Feature", "geometry": {"type": "Point", "coordinates": [32.95937, 60.97286]}, "properties": {"name": "МТП-493 Володарского", "Unom": 10, "address": "ОРЭС"}}, {"type": "Feature", "geometry": {"type": "Point", "coordinates": [32.95955, 60.9748]}, "properties": {"name": "ТП-491 РПБ РЭС-2", "Unom": 10, "address": "ОРЭС"}}, {"type": "Feature", "geometry": {"type": "Point", "coordinates": [32.9596, 61.08665]}, "properties": {"name": "ТП-353 Пертисельга  дачи", "Unom": 10, "address": "ОРЭС"}}, {"type": "Feature", "geometry": {"type": "Point", "coordinates": [32.96107, 60.97018]}, "properties": {"name": "ТП-481 Котельная", "Unom": 10, "address": "ОРЭС"}}, {"type": "Feature", "geometry": {"type": "Point", "coordinates": [32.96517, 60.96845]}, "properties": {"name": "ТП-424 ул. Совхозная", "Unom": 10, "address": "ОРЭС"}}, {"type": "Feature", "geometry": {"type": "Point", "coordinates": [32.97027, 60.96091]}, "properties": {"name": "ТП-479 Судалица пилорама", "Unom": 10, "address": "ОРЭС"}}, {"type": "Feature", "geometry": {"type": "Point", "coordinates": [32.97334, 61.09121]}, "properties": {"name": "ТП-326 Новинка", "Unom": 10, "address": "ОРЭС"}}, {"type": "Feature", "geometry": {"type": "Point", "coordinates": [32.97457, 60.96212]}, "properties": {"name": "ТП-320 Судалица магазин", "Unom": 10, "address": "ОРЭС"}}, {"type": "Feature", "geometry": {"type": "Point", "coordinates": [32.98392, 61.0855]}, "properties": {"name": "ТП-486 Новинка АЗС", "Unom": 10, "address": "ОРЭС"}}, {"type": "Feature", "geometry": {"type": "Point", "coordinates": [32.987265, 61.110955]}, "properties": {"name": "ТП-328 ЛЕМОЗЕРО", "Unom": 10, "address": "ОРЭС"}}, {"type": "Feature", "geometry": {"type": "Point", "coordinates": [32.9894, 61.0174]}, "properties": {"name": "ТП-472 Чимилица Газпром ГРС", "Unom": 10, "address": "ОРЭС"}}, {"type": "Feature", "geometry": {"type": "Point", "coordinates": [32.98951, 60.96805]}, "properties": {"name": "ТП-436 СПТУ-2", "Unom": 10, "address": "ОРЭС"}}, {"type": "Feature", "geometry": {"type": "Point", "coordinates": [32.99335, 60.95764]}, "properties": {"name": "ТП-478 Судалица деревня", "Unom": 10, "address": "ОРЭС"}}, {"type": "Feature", "geometry": {"type": "Point", "coordinates": [32.99931, 61.01361]}, "properties": {"name": "ТП-471Чимилица дом операторов", "Unom": 10, "address": "ОРЭС"}}, {"type": "Feature", "geometry": {"type": "Point", "coordinates": [33.006052, 60.981475]}, "properties": {"name": "ТП-406 Петкус", "Unom": 10, "address": "ОРЭС"}}, {"type": "Feature", "geometry": {"type": "Point", "coordinates": [33.00712, 60.98047]}, "properties": {"name": "ТП-407 Пер. К.Маркса", "Unom": 10, "address": "ОРЭС"}}, {"type": "Feature", "geometry": {"type": "Point", "coordinates": [33.00912, 60.95671]}, "properties": {"name": "ТП-303 Нанулица", "Unom": 10, "address": "ОРЭС"}}, {"type": "Feature", "geometry": {"type": "Point", "coordinates": [33.010945, 61.021685]}, "properties": {"name": "ТП-321 База ДС ПМК", "Unom": 10, "address": "ОРЭС"}}, {"type": "Feature", "geometry": {"type": "Point", "coordinates": [33.01117, 60.85619]}, "properties": {"name": "ТП-307 Сярмяга", "Unom": 10, "address": "ОРЭС"}}, {"type": "Feature", "geometry": {"type": "Point", "coordinates": [33.01469, 60.99271]}, "properties": {"name": "ТП-2307 Верховье церковь", "Unom": 10, "address": "ОРЭС"}}, {"type": "Feature", "geometry": {"type": "Point", "coordinates": [33.01479, 60.97904]}, "properties": {"name": "ТП-404", "Unom": 10, "address": "ОРЭС"}}, {"type": "Feature", "geometry": {"type": "Point", "coordinates": [33.01484, 60.99084]}, "properties": {"name": "ТП-403 Верховье Ж.Д. мост", "Unom": 10, "address": "ОРЭС"}}, {"type": "Feature", "geometry": {"type": "Point", "coordinates": [33.019915, 61.14145]}, "properties": {"name": "ТП-329 Ковера", "Unom": 10, "address": "ОРЭС"}}, {"type": "Feature", "geometry": {"type": "Point", "coordinates": [33.019935, 61.016025]}, "properties": {"name": "ТП-408 Питомник", "Unom": 10, "address": "ОРЭС"}}, {"type": "Feature", "geometry": {"type": "Point", "coordinates": [33.02057, 60.99877]}, "properties": {"name": "ТП-312 Чимилица", "Unom": 10, "address": "ОРЭС"}}, {"type": "Feature", "geometry": {"type": "Point", "coordinates": [33.02344, 61.00511]}, "properties": {"name": "ТП-323 Чимилица ФКРС", "Unom": 10, "address": "ОРЭС"}}, {"type": "Feature", "geometry": {"type": "Point", "coordinates": [33.02395, 60.99992]}, "properties": {"name": "ТП-2314 Верховье-1", "Unom": 10, "address": "ОРЭС"}}, {"type": "Feature", "geometry": {"type": "Point", "coordinates": [33.02433, 61.14413]}, "properties": {"name": "ТП-494 РТРС-1", "Unom": 10, "address": "ОРЭС"}}, {"type": "Feature", "geometry": {"type": "Point", "coordinates": [33.02436, 61.14417]}, "properties": {"name": "ТП-495 РТРС-2", "Unom": 10, "address": "ОРЭС"}}, {"type": "Feature", "geometry": {"type": "Point", "coordinates": [33.024375, 60.994955]}, "properties": {"name": "ТП-322", "Unom": 10, "address": "ОРЭС"}}, {"type": "Feature", "geometry": {"type": "Point", "coordinates": [33.02928, 61.02915]}, "properties": {"name": "ТП-430 Верховье Газпром КУ", "Unom": 10, "address": "ОРЭС"}}, {"type": "Feature", "geometry": {"type": "Point", "coordinates": [33.030815, 61.140775]}, "properties": {"name": "ТП-443 Ковера ГРП", "Unom": 10, "address": "ОРЭС"}}, {"type": "Feature", "geometry": {"type": "Point", "coordinates": [33.03258, 60.94548]}, "properties": {"name": "ТП-444 Юргелица", "Unom": 10, "address": "ОРЭС"}}, {"type": "Feature", "geometry": {"type": "Point", "coordinates": [33.0333, 60.94915]}, "properties": {"name": "ТП-304 Юргелица ФКРС", "Unom": 10, "address": "ОРЭС"}}, {"type": "Feature", "geometry": {"type": "Point", "coordinates": [33.03513, 60.9505]}, "properties": {"name": "ТП-497", "Unom": 10, "address": "ОРЭС"}}, {"type": "Feature", "geometry": {"type": "Point", "coordinates": [33.0385, 60.99948]}, "properties": {"name": "ТП-335 Чимилица деревня", "Unom": 10, "address": "ОРЭС"}}, {"type": "Feature", "geometry": {"type": "Point", "coordinates": [33.044245, 60.999585]}, "properties": {"name": "ТП-429 Чимилица картофелехр.", "Unom": 10, "address": "ОРЭС"}}, {"type": "Feature", "geometry": {"type": "Point", "coordinates": [33.045045, 60.936415]}, "properties": {"name": "ТП-460 Онькулица теплицы", "Unom": 10, "address": "ОРЭС"}}, {"type": "Feature", "geometry": {"type": "Point", "coordinates": [33.054295, 60.934135]}, "properties": {"name": "ТП-305 Онькулица деревня", "Unom": 10, "address": "ОРЭС"}}, {"type": "Feature", "geometry": {"type": "Point", "coordinates": [33.065735, 61.182455]}, "properties": {"name": "ТП-331 Березовая гора", "Unom": 10, "address": "ОРЭС"}}, {"type": "Feature", "geometry": {"type": "Point", "coordinates": [33.07434, 61.37607]}, "properties": {"name": "ТП-402 Вагвозеро", "Unom": 10, "address": "ОРЭС"}}, {"type": "Feature", "geometry": {"type": "Point", "coordinates": [33.07947, 60.91267]}, "properties": {"name": "ТП-306 Инема", "Unom": 10, "address": "ОРЭС"}}, {"type": "Feature", "geometry": {"type": "Point", "coordinates": [33.086185, 60.935275]}, "properties": {"name": "ТП-309 Пропитка", "Unom": 10, "address": "ОРЭС"}}, {"type": "Feature", "geometry": {"type": "Point", "coordinates": [33.098965, 60.93115]}, "properties": {"name": "ТП-310 Деревня", "Unom": 10, "address": "ОРЭС"}}, {"type": "Feature", "geometry": {"type": "Point", "coordinates": [33.102395, 61.190125]}, "properties": {"name": "ТП-392 Торосозеро ГРП", "Unom": 10, "address": "ОРЭС"}}, {"type": "Feature", "geometry": {"type": "Point", "coordinates": [33.103365, 60.931045]}, "properties": {"name": "ТП-428 Мегрега", "Unom": 10, "address": "ОРЭС"}}, {"type": "Feature", "geometry": {"type": "Point", "coordinates": [33.103675, 61.311335]}, "properties": {"name": "ТП-340 Утозеро", "Unom": 10, "address": "ОРЭС"}}, {"type": "Feature", "geometry": {"type": "Point", "coordinates": [33.104775, 61.191875]}, "properties": {"name": "ТП-332 Торосозеро", "Unom": 10, "address": "ОРЭС"}}, {"type": "Feature", "geometry": {"type": "Point", "coordinates": [33.10515, 61.05674]}, "properties": {"name": "ТП-318 Каменный ручей", "Unom": 10, "address": "ОРЭС"}}, {"type": "Feature", "geometry": {"type": "Point", "coordinates": [33.105735, 60.931015]}, "properties": {"name": "ТП-333 Мегрега школа", "Unom": 10, "address": "ОРЭС"}}, {"type": "Feature", "geometry": {"type": "Point", "coordinates": [33.10597, 60.93167]}, "properties": {"name": "ТП-2313 Мегрега Клуб", "Unom": 10, "address": "ОРЭС"}}, {"type": "Feature", "geometry": {"type": "Point", "coordinates": [33.107215, 60.935935]}, "properties": {"name": "ТП-431 Мастерские", "Unom": 10, "address": "ОРЭС"}}, {"type": "Feature", "geometry": {"type": "Point", "coordinates": [33.11183, 60.92864]}, "properties": {"name": "ТП-2310 Мегрега управтодор", "Unom": 10, "address": "ОРЭС"}}, {"type": "Feature", "geometry": {"type": "Point", "coordinates": [33.113555, 60.934175]}, "properties": {"name": "ТП-459 Мегрега очистные", "Unom": 10, "address": "ОРЭС"}}, {"type": "Feature", "geometry": {"type": "Point", "coordinates": [33.113965, 60.926535]}, "properties": {"name": "ТП-458 Деревня", "Unom": 10, "address": "ОРЭС"}}, {"type": "Feature", "geometry": {"type": "Point", "coordinates": [33.11418, 60.92465]}, "properties": {"name": "ТП-447 Мегрега ФКРС", "Unom": 10, "address": "ОРЭС"}}, {"type": "Feature", "geometry": {"type": "Point", "coordinates": [33.11508, 60.92898]}, "properties": {"name": "ТП-448 Мегрега АВМ", "Unom": 10, "address": "ОРЭС"}}, {"type": "Feature", "geometry": {"type": "Point", "coordinates": [33.1168, 60.92437]}, "properties": {"name": "ТП-410 д.Мегрега Скотный двор", "Unom": 10, "address": "ОРЭС"}}, {"type": "Feature", "geometry": {"type": "Point", "coordinates": [33.12332, 60.93993]}, "properties": {"name": "ТП-311 Сюрьга", "Unom": 10, "address": "ОРЭС"}}, {"type": "Feature", "geometry": {"type": "Point", "coordinates": [33.1549, 60.94714]}, "properties": {"name": "МТП - 2309 Мегрега Конечная", "Unom": 10, "address": "ОРЭС"}}, {"type": "Feature", "geometry": {"type": "Point", "coordinates": [33.1744, 61.05064]}, "properties": {"name": "ТП-488 Большая Сельга", "Unom": 10, "address": "ОРЭС"}}, {"type": "Feature", "geometry": {"type": "Point", "coordinates": [33.17996, 61.03979]}, "properties": {"name": "ТП-315 Малая Сельга", "Unom": 10, "address": "ОРЭС"}}, {"type": "Feature", "geometry": {"type": "Point", "coordinates": [33.181665, 61.292035]}, "properties": {"name": "ТП-390 РРС", "Unom": 10, "address": "ОРЭС"}}, {"type": "Feature", "geometry": {"type": "Point", "coordinates": [33.195435, 61.265355]}, "properties": {"name": "ТП-454 Свинарник", "Unom": 10, "address": "ОРЭС"}}, {"type": "Feature", "geometry": {"type": "Point", "coordinates": [33.1993, 61.26686]}, "properties": {"name": "ТП-336 Виллала ФКРС", "Unom": 10, "address": "ОРЭС"}}, {"type": "Feature", "geometry": {"type": "Point", "coordinates": [33.20172, 61.2622]}, "properties": {"name": "ТП-480 Звероферма", "Unom": 10, "address": "ОРЭС"}}, {"type": "Feature", "geometry": {"type": "Point", "coordinates": [33.204374, 61.259363]}, "properties": {"name": "ТП-2308 Коткозеро, Степан Наволок", "Unom": 10, "address": "ОРЭС"}}, {"type": "Feature", "geometry": {"type": "Point", "coordinates": [33.20527, 61.27978]}, "properties": {"name": "ТП 442 Картофеле хранилище", "Unom": 10, "address": "ОРЭС"}}, {"type": "Feature", "geometry": {"type": "Point", "coordinates": [33.20596, 60.98978]}, "properties": {"name": "ТП-389 д.Куйтежа (РРС)", "Unom": 10, "address": "ОРЭС"}}, {"type": "Feature", "geometry": {"type": "Point", "coordinates": [33.206765, 60.997155]}, "properties": {"name": "ТП-401 Кроликоферма", "Unom": 10, "address": "ОРЭС"}}, {"type": "Feature", "geometry": {"type": "Point", "coordinates": [33.20733, 60.99486]}, "properties": {"name": "ТП-314 Звероферма", "Unom": 10, "address": "ОРЭС"}}, {"type": "Feature", "geometry": {"type": "Point", "coordinates": [33.20764, 60.99124]}, "properties": {"name": "ТП-313 д.Куйтежа (очистные)", "Unom": 10, "address": "ОРЭС"}}, {"type": "Feature", "geometry": {"type": "Point", "coordinates": [33.20772, 60.99612]}, "properties": {"name": "ТП-412 Холодильник", "Unom": 10, "address": "ОРЭС"}}, {"type": "Feature", "geometry": {"type": "Point", "coordinates": [33.20954, 61.26903]}, "properties": {"name": "ТП-337 Деревня", "Unom": 10, "address": "ОРЭС"}}, {"type": "Feature", "geometry": {"type": "Point", "coordinates": [33.210225, 61.272585]}, "properties": {"name": "ТП-451 Котельная", "Unom": 10, "address": "ОРЭС"}}, {"type": "Feature", "geometry": {"type": "Point", "coordinates": [33.21036, 61.27437]}, "properties": {"name": "ТП-338 Школа", "Unom": 10, "address": "ОРЭС"}}, {"type": "Feature", "geometry": {"type": "Point", "coordinates": [33.21355, 61.2784]}, "properties": {"name": "ТП-339 Гараж", "Unom": 10, "address": "ОРЭС"}}, {"type": "Feature", "geometry": {"type": "Point", "coordinates": [33.214365, 61.000685]}, "properties": {"name": "ТП-422-ФКРС", "Unom": 10, "address": "ОРЭС"}}, {"type": "Feature", "geometry": {"type": "Point", "coordinates": [33.21477, 61.27385]}, "properties": {"name": "ТП-347 Коткозеро СДК", "Unom": 10, "address": "ОРЭС"}}, {"type": "Feature", "geometry": {"type": "Point", "coordinates": [33.215365, 60.990735]}, "properties": {"name": "ТП-345 Куйтежа деревня", "Unom": 10, "address": "ОРЭС"}}, {"type": "Feature", "geometry": {"type": "Point", "coordinates": [33.21571, 60.99295]}, "properties": {"name": "ТП-413 Куйтежа школа", "Unom": 10, "address": "ОРЭС"}}, {"type": "Feature", "geometry": {"type": "Point", "coordinates": [33.2194, 60.99399]}, "properties": {"name": "ТП-316 Куйтежа деревня", "Unom": 10, "address": "ОРЭС"}}, {"type": "Feature", "geometry": {"type": "Point", "coordinates": [33.224845, 61.246055]}, "properties": {"name": "ТП-334 Лахта", "Unom": 10, "address": "ОРЭС"}}, {"type": "Feature", "geometry": {"type": "Point", "coordinates": [33.24331, 61.38137]}, "properties": {"name": "ТП-405 Кескозеро", "Unom": 10, "address": "ОРЭС"}}, {"type": "Feature", "geometry": {"type": "Point", "coordinates": [33.245995, 61.377025]}, "properties": {"name": "ТП-391 Кескозеро дачи", "Unom": 10, "address": "ОРЭС"}}, {"type": "Feature", "geometry": {"type": "Point", "coordinates": [33.24763, 61.30932]}, "properties": {"name": "ТП-416 Лумбозеро", "Unom": 10, "address": "ОРЭС"}}, {"type": "Feature", "geometry": {"type": "Point", "coordinates": [33.25199, 60.93197]}, "properties": {"name": "ТП-388 Самбатукса", "Unom": 10, "address": "ОРЭС"}}, {"type": "Feature", "geometry": {"type": "Point", "coordinates": [33.42987, 61.0222]}, "properties": {"name": "ТП-467 Речная Сельга Газпром КУ", "Unom": 10, "address": "ОРЭС"}}, {"type": "Feature", "geometry": {"type": "Point", "coordinates": [33.49112, 61.03161]}, "properties": {"name": "ТП-2312 Мегрозеро", "Unom": 10, "address": "ОРЭС"}}, {"type": "Feature", "geometry": {"type": "Point", "coordinates": [33.56921, 61.00779]}, "properties": {"name": "ТП-421", "Unom": 10, "address": "ОРЭС"}}, {"type": "Feature", "geometry": {"type": "Point", "coordinates": [33.72409, 61.00986]}, "properties": {"name": "№ 423 ФКРС", "Unom": 10, "address": "ОРЭС"}}, {"type": "Feature", "geometry": {"type": "Point", "coordinates": [33.73231, 61.0109]}, "properties": {"name": "№ 498 Гараж", "Unom": 10, "address": "ОРЭС"}}, {"type": "Feature", "geometry": {"type": "Point", "coordinates": [33.73344, 61.01548]}, "properties": {"name": "№499 Клуб", "Unom": 10, "address": "ОРЭС"}}, {"type": "Feature", "geometry": {"type": "Point", "coordinates": [33.735655, 61.01145]}, "properties": {"name": "ТП-420", "Unom": 10, "address": "ОРЭС"}}, {"type": "Feature", "geometry": {"type": "Point", "coordinates": [33.73625, 61.01477]}, "properties": {"name": "№ 437 Деревня", "Unom": 10, "address": "ОРЭС"}}, {"type": "Feature", "geometry": {"type": "Point", "coordinates": [33.7572, 61.00921]}, "properties": {"name": "№ 419 Звероферма", "Unom": 10, "address": "ОРЭС"}}, {"type": "Feature", "geometry": {"type": "Point", "coordinates": [33.79099, 60.9947]}, "properties": {"name": "№ 417 Гижино", "Unom": 10, "address": "ОРЭС"}}, {"type": "Feature", "geometry": {"type": "Point", "coordinates": [33.80065, 61.01238]}, "properties": {"name": "№ 418 Ташкеница", "Unom": 10, "address": "ОРЭС"}}]}