{"type": "FeatureCollection", "features": [{"type": "Feature", "geometry": {"type": "Point", "coordinates": [38.551667, 59.227222]}, "properties": {"name": "ПС 110 кВ Шексна", "Unom": 110, "address": "-"}}, {"type": "Feature", "geometry": {"type": "Point", "coordinates": [38.463889, 59.225833]}, "properties": {"name": "ПС 110 кВ Нифантово", "Unom": 110, "address": "-"}}, {"type": "Feature", "geometry": {"type": "Point", "coordinates": [39.003333, 59.121944]}, "properties": {"name": "ПС 35 кВ Нестерово", "Unom": 35, "address": "-"}}, {"type": "Feature", "geometry": {"type": "Point", "coordinates": [38.539167, 59.052778]}, "properties": {"name": "ПС 35 кВ Юрочкино", "Unom": 35, "address": "-"}}, {"type": "Feature", "geometry": {"type": "Point", "coordinates": [38.65, 59.501944]}, "properties": {"name": "ПС 35 кВ Свигра", "Unom": 35, "address": "-"}}, {"type": "Feature", "geometry": {"type": "Point", "coordinates": [38.593889, 59.269722]}, "properties": {"name": "ПС 35 кВ Чуровское", "Unom": 35, "address": "-"}}, {"type": "Feature", "geometry": {"type": "Point", "coordinates": [38.770556, 59.160833]}, "properties": {"name": "ПС 35 кВ Чебсара", "Unom": 35, "address": "-"}}, {"type": "Feature", "geometry": {"type": "Point", "coordinates": [38.516944, 59.145833]}, "properties": {"name": "ПС 35 кВ Газ", "Unom": 35, "address": "-"}}, {"type": "Feature", "geometry": {"type": "Point", "coordinates": [38.704444, 59.415833]}, "properties": {"name": "ПС 35 кВ Сизьма", "Unom": 35, "address": "-"}}, {"type": "Feature", "geometry": {"type": "Point", "coordinates": [38.615833, 59.340556]}, "properties": {"name": "ПС 35 кВ Чаромское", "Unom": 35, "address": "-"}}, {"type": "Feature", "geometry": {"type": "Point", "coordinates": [38.516944, 59.145833]}, "properties": {"name": "ПС 35 кВ Поток", "Unom": 35, "address": "-"}}, {"type": "Feature", "geometry": {"type": "Point", "coordinates": [38.393756, 58.957678]}, "properties": {"name": "ПС 110 кВ Батран", "Unom": 110, "address": "-"}}, {"type": "Feature", "geometry": {"type": "Point", "coordinates": [38.512814, 58.913764]}, "properties": {"name": "ПС 35 кВ Аксеново", "Unom": 35, "address": "-"}}, {"type": "Feature", "geometry": {"type": "Point", "coordinates": [38.327967, 58.995117]}, "properties": {"name": "АВМ Сурково", "Unom": 10, "address": "ВЛ 10 кВ Сурково"}}, {"type": "Feature", "geometry": {"type": "Point", "coordinates": [38.288717, 59.1017]}, "properties": {"name": "Витержево", "Unom": 10, "address": "ВЛ 10 кВ Сурково"}}, {"type": "Feature", "geometry": {"type": "Point", "coordinates": [38.370967, 59.3233]}, "properties": {"name": "д. Минино", "Unom": 10, "address": "ВЛ 10 кВ Гоша"}}, {"type": "Feature", "geometry": {"type": "Point", "coordinates": [38.424117, 59.54]}, "properties": {"name": "д. Наговицино", "Unom": 10, "address": "ВЛ 10 кВ Пронино"}}, {"type": "Feature", "geometry": {"type": "Point", "coordinates": [38.351833, 59.23417]}, "properties": {"name": "д. Очениково", "Unom": 10, "address": "ВЛ 10 кВ Гоша"}}, {"type": "Feature", "geometry": {"type": "Point", "coordinates": [38.43685, 58.9466]}, "properties": {"name": "д. Рябово", "Unom": 10, "address": "ВЛ 10 кВ Пиево"}}, {"type": "Feature", "geometry": {"type": "Point", "coordinates": [38.278167, 59.102683]}, "properties": {"name": "д. Ульяново №1", "Unom": 10, "address": "ВЛ 10 кВ Гоша"}}, {"type": "Feature", "geometry": {"type": "Point", "coordinates": [38.286583, 59.104867]}, "properties": {"name": "д. Ульяново №2", "Unom": 10, "address": "ВЛ 10 кВ Гоша"}}, {"type": "Feature", "geometry": {"type": "Point", "coordinates": [38.66339, 58.957854]}, "properties": {"name": "д. Фоминское", "Unom": 10, "address": "ВЛ 10 кВ Фоминское"}}, {"type": "Feature", "geometry": {"type": "Point", "coordinates": [38.6157, 58.9629]}, "properties": {"name": "д. Шалимово", "Unom": 10, "address": "ВЛ 10 кВ Шалимово"}}, {"type": "Feature", "geometry": {"type": "Point", "coordinates": [38.534517, 58.965933]}, "properties": {"name": "Жарки", "Unom": 10, "address": "ВЛ 10 кВ Шалимово"}}, {"type": "Feature", "geometry": {"type": "Point", "coordinates": [38.344833, 59.56533]}, "properties": {"name": "Зерноток Гоша", "Unom": 10, "address": "ВЛ 10 кВ Гоша"}}, {"type": "Feature", "geometry": {"type": "Point", "coordinates": [38.557967, 58.973683]}, "properties": {"name": "Кузнецово", "Unom": 10, "address": "ВЛ 10 кВ Шалимово"}}, {"type": "Feature", "geometry": {"type": "Point", "coordinates": [38.318883, 58.991517]}, "properties": {"name": "пилорама Сурково", "Unom": 10, "address": "ВЛ 10 кВ Сурково"}}, {"type": "Feature", "geometry": {"type": "Point", "coordinates": [38.39245, 58.98035]}, "properties": {"name": "Покровское", "Unom": 10, "address": "ВЛ 10 кВ Гоша"}}, {"type": "Feature", "geometry": {"type": "Point", "coordinates": [38.609167, 58.968967]}, "properties": {"name": "РТС", "Unom": 10, "address": "ВЛ 10 кВ Шалимово"}}, {"type": "Feature", "geometry": {"type": "Point", "coordinates": [38.5442, 58.9709]}, "properties": {"name": "Ферма Вельяминово", "Unom": 10, "address": "ВЛ 10 кВ Шалимово"}}, {"type": "Feature", "geometry": {"type": "Point", "coordinates": [38.341017, 59.57967]}, "properties": {"name": "ферма Гоша", "Unom": 10, "address": "ВЛ 10 кВ Гоша"}}, {"type": "Feature", "geometry": {"type": "Point", "coordinates": [38.331183, 58.98955]}, "properties": {"name": "ферма Сурково", "Unom": 10, "address": "ВЛ 10 кВ Комплекс"}}, {"type": "Feature", "geometry": {"type": "Point", "coordinates": [38.40905, 58.968567]}, "properties": {"name": "Афанасово", "Unom": 10, "address": "ВЛ 10 кВ Покровское"}}, {"type": "Feature", "geometry": {"type": "Point", "coordinates": [38.572067, 58.976567]}, "properties": {"name": "Верховье", "Unom": 10, "address": "ВЛ 10 кВ Шалимово"}}, {"type": "Feature", "geometry": {"type": "Point", "coordinates": [38.32845, 58.991317]}, "properties": {"name": "д.Сурково", "Unom": 10, "address": "ВЛ 10 кВ Комплекс"}}, {"type": "Feature", "geometry": {"type": "Point", "coordinates": [38.410717, 58.964067]}, "properties": {"name": "деревня Батран", "Unom": 10, "address": "ВЛ 10 кВ Льнозавод"}}, {"type": "Feature", "geometry": {"type": "Point", "coordinates": [38.341833, 59.53217]}, "properties": {"name": "Деревня Гоша", "Unom": 10, "address": "ВЛ 10 кВ Гоша"}}, {"type": "Feature", "geometry": {"type": "Point", "coordinates": [38.617333, 58.9658]}, "properties": {"name": "ДК Шалимово", "Unom": 10, "address": "ВЛ 10 кВ Шалимово"}}, {"type": "Feature", "geometry": {"type": "Point", "coordinates": [38.669217, 58.957917]}, "properties": {"name": "зерноток Фоминское", "Unom": 10, "address": "ВЛ 10 кВ Фоминское"}}, {"type": "Feature", "geometry": {"type": "Point", "coordinates": [38.406467, 58.998683]}, "properties": {"name": "Карпово", "Unom": 10, "address": "ВЛ 10 кВ Пронино"}}, {"type": "Feature", "geometry": {"type": "Point", "coordinates": [38.33935, 59.5725]}, "properties": {"name": "Кормоцех Гоша", "Unom": 10, "address": "ВЛ 10 кВ Гоша"}}, {"type": "Feature", "geometry": {"type": "Point", "coordinates": [38.406167, 58.969167]}, "properties": {"name": "мастерские Батран", "Unom": 10, "address": "ВЛ 10 кВ Покровское"}}, {"type": "Feature", "geometry": {"type": "Point", "coordinates": [38.337667, 58.999983]}, "properties": {"name": "мастерские Сурково", "Unom": 10, "address": "ВЛ 10 кВ Комплекс"}}, {"type": "Feature", "geometry": {"type": "Point", "coordinates": [38.60915, 58.965533]}, "properties": {"name": "Пилорама Шалимово", "Unom": 10, "address": "ВЛ 10 кВ Шалимово"}}, {"type": "Feature", "geometry": {"type": "Point", "coordinates": [38.41965, 58.96515]}, "properties": {"name": "посёлок Батран", "Unom": 10, "address": "ВЛ 10 кВ Льнозавод"}}, {"type": "Feature", "geometry": {"type": "Point", "coordinates": [38.33385, 58.9971]}, "properties": {"name": "посёлок Сурково", "Unom": 10, "address": "ВЛ 10 кВ Комплекс"}}, {"type": "Feature", "geometry": {"type": "Point", "coordinates": [38.589533, 58.99535]}, "properties": {"name": "ферма Старики", "Unom": 10, "address": "ВЛ 10 кВ Фоминское"}}, {"type": "Feature", "geometry": {"type": "Point", "coordinates": [38.4065, 58.994733]}, "properties": {"name": "Лыжный стадион Карпово", "Unom": 10, "address": "ВЛ 10 кВ Пронино"}}, {"type": "Feature", "geometry": {"type": "Point", "coordinates": [38.521033, 58.9875]}, "properties": {"name": "М. Шорманга", "Unom": 10, "address": "ВЛ 10 кВ Пронино"}}, {"type": "Feature", "geometry": {"type": "Point", "coordinates": [38.5784, 58.870233]}, "properties": {"name": "Маслово", "Unom": 10, "address": "ВЛ 10 кВ Завидово"}}, {"type": "Feature", "geometry": {"type": "Point", "coordinates": [38.59835, 58.970467]}, "properties": {"name": "АВМ Байново", "Unom": 10, "address": "ВЛ 10 кВ Шалимово"}}, {"type": "Feature", "geometry": {"type": "Point", "coordinates": [38.240033, 59.83533]}, "properties": {"name": "д. Даргун", "Unom": 10, "address": "ВЛ 10 кВ Гоша"}}, {"type": "Feature", "geometry": {"type": "Point", "coordinates": [38.3598, 59.1885]}, "properties": {"name": "Дмитриевское", "Unom": 10, "address": "ВЛ 10 кВ Гоша"}}, {"type": "Feature", "geometry": {"type": "Point", "coordinates": [38.394283, 58.976783]}, "properties": {"name": "ферма Покровское", "Unom": 10, "address": "ВЛ 10 кВ Покровское"}}, {"type": "Feature", "geometry": {"type": "Point", "coordinates": [38.672967, 58.959667]}, "properties": {"name": "ферма Фоминское", "Unom": 10, "address": "ВЛ 10 кВ Фоминское"}}, {"type": "Feature", "geometry": {"type": "Point", "coordinates": [38.2477, 59.87533]}, "properties": {"name": "Дачи Строитель Даргун", "Unom": 10, "address": "ВЛ 10 кВ Гоша"}}, {"type": "Feature", "geometry": {"type": "Point", "coordinates": [38.478433, 59.6533]}, "properties": {"name": "Новая", "Unom": 10, "address": "ВЛ 10 кВ Пронино"}}, {"type": "Feature", "geometry": {"type": "Point", "coordinates": [38.402267, 58.971067]}, "properties": {"name": "АВМ Батран", "Unom": 10, "address": "ВЛ 10 кВ Покровское"}}, {"type": "Feature", "geometry": {"type": "Point", "coordinates": [38.595767, 58.96995]}, "properties": {"name": "Зерноток Байново", "Unom": 10, "address": "ВЛ 10 кВ Шалимово"}}, {"type": "Feature", "geometry": {"type": "Point", "coordinates": [38.41035, 58.96195]}, "properties": {"name": "зерноток Батран", "Unom": 10, "address": "ВЛ 10 кВ Льнозавод"}}, {"type": "Feature", "geometry": {"type": "Point", "coordinates": [38.300583, 58.975]}, "properties": {"name": "Койно", "Unom": 10, "address": "ВЛ 10 кВ Сурково"}}, {"type": "Feature", "geometry": {"type": "Point", "coordinates": [38.49985, 58.997717]}, "properties": {"name": "Б. Шорманга", "Unom": 10, "address": "ВЛ 10 кВ Пронино"}}, {"type": "Feature", "geometry": {"type": "Point", "coordinates": [38.43375, 59.405]}, "properties": {"name": "Воробьево", "Unom": 10, "address": "ВЛ 10 кВ Пронино"}}, {"type": "Feature", "geometry": {"type": "Point", "coordinates": [38.3333, 58.97415]}, "properties": {"name": "Высоково", "Unom": 10, "address": "ВЛ 10 кВ Сурково"}}, {"type": "Feature", "geometry": {"type": "Point", "coordinates": [38.25395, 59.8625]}, "properties": {"name": "д. Поповское", "Unom": 10, "address": "ВЛ 10 кВ Гоша"}}, {"type": "Feature", "geometry": {"type": "Point", "coordinates": [38.254783, 59.93333]}, "properties": {"name": "Дачи Поповское", "Unom": 10, "address": "ВЛ 10 кВ Гоша"}}, {"type": "Feature", "geometry": {"type": "Point", "coordinates": [38.39645, 58.960367]}, "properties": {"name": "Деревня Б.Поле", "Unom": 10, "address": "ВЛ 10 кВ Покровское"}}, {"type": "Feature", "geometry": {"type": "Point", "coordinates": [38.5989, 58.968117]}, "properties": {"name": "Деревня Байново", "Unom": 10, "address": "ВЛ 10 кВ Шалимово"}}, {"type": "Feature", "geometry": {"type": "Point", "coordinates": [38.550383, 58.9745]}, "properties": {"name": "Деревня Вельяминово", "Unom": 10, "address": "ВЛ 10 кВ Шалимово"}}, {"type": "Feature", "geometry": {"type": "Point", "coordinates": [38.6318, 58.954467]}, "properties": {"name": "Деревня Дьяконово", "Unom": 10, "address": "ВЛ 10 кВ Фоминское"}}, {"type": "Feature", "geometry": {"type": "Point", "coordinates": [38.457483, 59.7917]}, "properties": {"name": "Деревня Пронино", "Unom": 10, "address": "ВЛ 10 кВ Пронино"}}, {"type": "Feature", "geometry": {"type": "Point", "coordinates": [38.583533, 58.992167]}, "properties": {"name": "Деревня Старики", "Unom": 10, "address": "ВЛ 10 кВ Фоминское"}}, {"type": "Feature", "geometry": {"type": "Point", "coordinates": [38.29265, 59.83217]}, "properties": {"name": "Дом Охотника", "Unom": 10, "address": "ВЛ 10 кВ Гоша"}}, {"type": "Feature", "geometry": {"type": "Point", "coordinates": [38.60365, 58.956917]}, "properties": {"name": "Дорки", "Unom": 10, "address": "ВЛ 10 кВ Шалимово"}}, {"type": "Feature", "geometry": {"type": "Point", "coordinates": [38.394483, 58.96205]}, "properties": {"name": "ж/д ПС .Б.Поле", "Unom": 10, "address": "ВЛ 10 кВ Покровское"}}, {"type": "Feature", "geometry": {"type": "Point", "coordinates": [38.453617, 58.978233]}, "properties": {"name": "Жаворонково", "Unom": 10, "address": "ВЛ 10 кВ Пиево"}}, {"type": "Feature", "geometry": {"type": "Point", "coordinates": [38.312933, 59.6317]}, "properties": {"name": "Заречка", "Unom": 10, "address": "ВЛ 10 кВ Сурково"}}, {"type": "Feature", "geometry": {"type": "Point", "coordinates": [38.394033, 58.9454]}, "properties": {"name": "Каргачи", "Unom": 10, "address": "ВЛ 10 кВ Фокино"}}, {"type": "Feature", "geometry": {"type": "Point", "coordinates": [38.420667, 58.982633]}, "properties": {"name": "Мартьяново", "Unom": 10, "address": "ВЛ 10 кВ Покровское"}}, {"type": "Feature", "geometry": {"type": "Point", "coordinates": [38.394333, 58.97505]}, "properties": {"name": "Склад сена Покровское", "Unom": 10, "address": "ВЛ 10 кВ Покровское"}}, {"type": "Feature", "geometry": {"type": "Point", "coordinates": [38.46685, 58.9571]}, "properties": {"name": "Старое", "Unom": 10, "address": "ВЛ 10 кВ Пиево"}}, {"type": "Feature", "geometry": {"type": "Point", "coordinates": [38.3448, 58.978967]}, "properties": {"name": "Толмачево", "Unom": 10, "address": "ВЛ 10 кВ Сурково"}}, {"type": "Feature", "geometry": {"type": "Point", "coordinates": [38.636384, 58.95088]}, "properties": {"name": "ферма Дьяконово", "Unom": 10, "address": "ВЛ 10 кВ Фоминское"}}, {"type": "Feature", "geometry": {"type": "Point", "coordinates": [38.45305, 58.93795]}, "properties": {"name": "Фокино", "Unom": 10, "address": "ВЛ 10 кВ Фокино"}}, {"type": "Feature", "geometry": {"type": "Point", "coordinates": [38.442783, 58.956933]}, "properties": {"name": "Яковлево", "Unom": 10, "address": "ВЛ 10 кВ Пиево"}}, {"type": "Feature", "geometry": {"type": "Point", "coordinates": [38.262567, 59.97517]}, "properties": {"name": "Лихачево", "Unom": 10, "address": "ВЛ 10 кВ Гоша"}}, {"type": "Feature", "geometry": {"type": "Point", "coordinates": [38.350967, 59.26033]}, "properties": {"name": "Очениково-2", "Unom": 10, "address": "ВЛ 10 кВ Гоша"}}, {"type": "Feature", "geometry": {"type": "Point", "coordinates": [38.361665, 59.10039]}, "properties": {"name": "Бета", "Unom": 10, "address": "ВЛ 10 кВ Гоша"}}, {"type": "Feature", "geometry": {"type": "Point", "coordinates": [38.459, 58.966667]}, "properties": {"name": "Пиево", "Unom": 10, "address": "ВЛ 10 кВ Пиево"}}, {"type": "Feature", "geometry": {"type": "Point", "coordinates": [38.360233, 58.970017]}, "properties": {"name": "Чабино", "Unom": 10, "address": "ВЛ 10 кВ Сурково"}}, {"type": "Feature", "geometry": {"type": "Point", "coordinates": [38.43695, 58.955233]}, "properties": {"name": "Ферма Рябово", "Unom": 10, "address": "ВЛ 10 кВ Льнозавод"}}, {"type": "Feature", "geometry": {"type": "Point", "coordinates": [38.6157, 58.898883]}, "properties": {"name": "АТС", "Unom": 10, "address": "ВЛ 10 кВ Воскресенское"}}, {"type": "Feature", "geometry": {"type": "Point", "coordinates": [38.508933, 58.9062]}, "properties": {"name": "Деревня Аксеново", "Unom": 10, "address": "ВЛ 10 кВ Мусора"}}, {"type": "Feature", "geometry": {"type": "Point", "coordinates": [38.727767, 58.9194]}, "properties": {"name": "Деревня Тимово", "Unom": 10, "address": "ВЛ 10 кВ Сара"}}, {"type": "Feature", "geometry": {"type": "Point", "coordinates": [38.861333, 58.8535]}, "properties": {"name": "Зерноток Шишовка", "Unom": 10, "address": "ВЛ 10 кВ Шишовка"}}, {"type": "Feature", "geometry": {"type": "Point", "coordinates": [38.7876, 58.952933]}, "properties": {"name": "Новинка", "Unom": 10, "address": "ВЛ 10 кВ Сара"}}, {"type": "Feature", "geometry": {"type": "Point", "coordinates": [38.706683, 58.931133]}, "properties": {"name": "Поповское", "Unom": 10, "address": "ВЛ 10 кВ Сара"}}, {"type": "Feature", "geometry": {"type": "Point", "coordinates": [38.820517, 58.955767]}, "properties": {"name": "ферма Спас-Лом", "Unom": 10, "address": "ВЛ 10 кВ Сара"}}, {"type": "Feature", "geometry": {"type": "Point", "coordinates": [38.587083, 58.8996]}, "properties": {"name": "Деревня Якушево", "Unom": 10, "address": "ВЛ 10 кВ Восход"}}, {"type": "Feature", "geometry": {"type": "Point", "coordinates": [38.5115, 58.9101]}, "properties": {"name": "Детсад Аксеново", "Unom": 10, "address": "ВЛ 10 кВ Мусора"}}, {"type": "Feature", "geometry": {"type": "Point", "coordinates": [38.610567, 58.89215]}, "properties": {"name": "Зерноток Чиково", "Unom": 10, "address": "ВЛ 10 кВ Шишовка"}}, {"type": "Feature", "geometry": {"type": "Point", "coordinates": [38.517383, 58.9042]}, "properties": {"name": "Мастерские Аксеново", "Unom": 10, "address": "ВЛ 10 кВ Мусора"}}, {"type": "Feature", "geometry": {"type": "Point", "coordinates": [38.6229, 58.893517]}, "properties": {"name": "Мастерские Воскресенское", "Unom": 10, "address": "ВЛ 10 кВ Воскресенское"}}, {"type": "Feature", "geometry": {"type": "Point", "coordinates": [38.61375, 58.894517]}, "properties": {"name": "Село Воскресенское", "Unom": 10, "address": "ВЛ 10 кВ Воскресенское"}}, {"type": "Feature", "geometry": {"type": "Point", "coordinates": [38.86795, 58.849883]}, "properties": {"name": "село Шишовка", "Unom": 10, "address": "ВЛ 10 кВ Шишовка"}}, {"type": "Feature", "geometry": {"type": "Point", "coordinates": [38.659717, 58.880867]}, "properties": {"name": "ф. Ильмовик", "Unom": 10, "address": "ВЛ 10 кВ Шишовка"}}, {"type": "Feature", "geometry": {"type": "Point", "coordinates": [38.60455, 58.901133]}, "properties": {"name": "фер.Якушево", "Unom": 10, "address": "ВЛ 10 кВ Воскресенское"}}, {"type": "Feature", "geometry": {"type": "Point", "coordinates": [38.6016, 58.900817]}, "properties": {"name": "Якушево", "Unom": 10, "address": "ВЛ 10 кВ Воскресенское"}}, {"type": "Feature", "geometry": {"type": "Point", "coordinates": [38.720483, 58.9634]}, "properties": {"name": "Молоково", "Unom": 10, "address": "ВЛ 10 кВ Сара"}}, {"type": "Feature", "geometry": {"type": "Point", "coordinates": [38.549567, 58.8745]}, "properties": {"name": "Романово", "Unom": 10, "address": "ВЛ 10 кВ Мусора"}}, {"type": "Feature", "geometry": {"type": "Point", "coordinates": [38.6833, 58.932583]}, "properties": {"name": "Сорокино", "Unom": 10, "address": "ВЛ 10 кВ Сара"}}, {"type": "Feature", "geometry": {"type": "Point", "coordinates": [38.870833, 58.793067]}, "properties": {"name": "Суковатка", "Unom": 10, "address": "ВЛ 10 кВ Шишовка"}}, {"type": "Feature", "geometry": {"type": "Point", "coordinates": [38.5332, 58.90375]}, "properties": {"name": "Сычево", "Unom": 10, "address": "ВЛ 10 кВ Мусора"}}, {"type": "Feature", "geometry": {"type": "Point", "coordinates": [38.6068, 58.8996]}, "properties": {"name": "Детсад Воскресенское", "Unom": 10, "address": "ВЛ 10 кВ Воскресенское"}}, {"type": "Feature", "geometry": {"type": "Point", "coordinates": [38.857633, 58.846917]}, "properties": {"name": "Мастерские", "Unom": 10, "address": "ВЛ 10 кВ Шишовка"}}, {"type": "Feature", "geometry": {"type": "Point", "coordinates": [38.468767, 58.908217]}, "properties": {"name": "Шиловка", "Unom": 10, "address": "ВЛ 10 кВ Шиловка"}}, {"type": "Feature", "geometry": {"type": "Point", "coordinates": [38.6088, 58.8692]}, "properties": {"name": "Александрово", "Unom": 10, "address": "ВЛ 10 кВ Завидово"}}, {"type": "Feature", "geometry": {"type": "Point", "coordinates": [38.72495, 58.93495]}, "properties": {"name": "Архангельское", "Unom": 10, "address": "ВЛ 10 кВ Сара"}}, {"type": "Feature", "geometry": {"type": "Point", "coordinates": [38.502483, 58.896683]}, "properties": {"name": "Б. Мусора", "Unom": 10, "address": "ВЛ 10 кВ Мусора"}}, {"type": "Feature", "geometry": {"type": "Point", "coordinates": [38.856, 58.80475]}, "properties": {"name": "Гурлево", "Unom": 10, "address": "ВЛ 10 кВ Шишовка"}}, {"type": "Feature", "geometry": {"type": "Point", "coordinates": [38.658283, 58.8843]}, "properties": {"name": "Деревня Ильмовик", "Unom": 10, "address": "ВЛ 10 кВ Шишовка"}}, {"type": "Feature", "geometry": {"type": "Point", "coordinates": [38.827233, 58.95095]}, "properties": {"name": "Деревня Спас-Лом", "Unom": 10, "address": "ВЛ 10 кВ Сара"}}, {"type": "Feature", "geometry": {"type": "Point", "coordinates": [38.677483, 58.873433]}, "properties": {"name": "Дубнишное", "Unom": 10, "address": "ВЛ 10 кВ Шишовка"}}, {"type": "Feature", "geometry": {"type": "Point", "coordinates": [38.58205, 58.875033]}, "properties": {"name": "Завидово", "Unom": 10, "address": "ВЛ 10 кВ Завидово"}}, {"type": "Feature", "geometry": {"type": "Point", "coordinates": [38.84985, 58.857267]}, "properties": {"name": "Катаево", "Unom": 10, "address": "ВЛ 10 кВ Шишовка"}}, {"type": "Feature", "geometry": {"type": "Point", "coordinates": [38.545417, 58.918217]}, "properties": {"name": "Меледа", "Unom": 10, "address": "ВЛ 10 кВ Восход"}}, {"type": "Feature", "geometry": {"type": "Point", "coordinates": [38.732633, 58.94075]}, "properties": {"name": "Новая деревня", "Unom": 10, "address": "ВЛ 10 кВ Сара"}}, {"type": "Feature", "geometry": {"type": "Point", "coordinates": [38.737433, 58.92915]}, "properties": {"name": "Поварово", "Unom": 10, "address": "ВЛ 10 кВ Сара"}}, {"type": "Feature", "geometry": {"type": "Point", "coordinates": [38.874883, 58.853217]}, "properties": {"name": "Ферма Шишовка", "Unom": 10, "address": "ВЛ 10 кВ Шишовка"}}, {"type": "Feature", "geometry": {"type": "Point", "coordinates": [38.86535, 58.843683]}, "properties": {"name": "Чикеево", "Unom": 10, "address": "ВЛ 10 кВ Шишовка"}}, {"type": "Feature", "geometry": {"type": "Point", "coordinates": [38.603167, 58.898983]}, "properties": {"name": "Котельная", "Unom": 10, "address": "ВЛ 10 кВ Котельная"}}, {"type": "Feature", "geometry": {"type": "Point", "coordinates": [38.596433, 58.894883]}, "properties": {"name": "Очистные Воскресенское", "Unom": 10, "address": "ВЛ 10 кВ Котельная"}}, {"type": "Feature", "geometry": {"type": "Point", "coordinates": [38.626305, 59.343081]}, "properties": {"name": "Школа", "Unom": 10, "address": "ВЛ 10 кВ Чаромское"}}, {"type": "Feature", "geometry": {"type": "Point", "coordinates": [38.599211, 59.257468]}, "properties": {"name": "Школа", "Unom": 10, "address": "ВЛ 10 кВ Малинуха-1"}}, {"type": "Feature", "geometry": {"type": "Point", "coordinates": [38.620754, 59.343269]}, "properties": {"name": "Котельная", "Unom": 10, "address": "ВЛ 10 кВ Чаромское"}}, {"type": "Feature", "geometry": {"type": "Point", "coordinates": [38.494756, 59.194348]}, "properties": {"name": "Ц.усадьба", "Unom": 10, "address": "ВЛ 10 кВ Подолец"}}, {"type": "Feature", "geometry": {"type": "Point", "coordinates": [38.766307, 59.279742]}, "properties": {"name": "Бугры", "Unom": 10, "address": "ВЛ 10 кВ Келбуй"}}, {"type": "Feature", "geometry": {"type": "Point", "coordinates": [38.8963, 59.110857]}, "properties": {"name": "Булатово", "Unom": 10, "address": "ВЛ 10 кВ Братково"}}, {"type": "Feature", "geometry": {"type": "Point", "coordinates": [38.758978, 59.216803]}, "properties": {"name": "Дудкино", "Unom": 10, "address": "ВЛ 10 кВ РТР"}}, {"type": "Feature", "geometry": {"type": "Point", "coordinates": [38.262923, 59.193013]}, "properties": {"name": "Курово", "Unom": 10, "address": "ВЛ 10 кВ Соколье"}}, {"type": "Feature", "geometry": {"type": "Point", "coordinates": [39.066644, 59.3154]}, "properties": {"name": "Митрохово", "Unom": 10, "address": "ВЛ 10 кВ Ларионово"}}, {"type": "Feature", "geometry": {"type": "Point", "coordinates": [38.512514, 59.361222]}, "properties": {"name": "Рамешка", "Unom": 10, "address": "ВЛ 10 кВ Шигоево"}}, {"type": "Feature", "geometry": {"type": "Point", "coordinates": [38.2923, 59.351962]}, "properties": {"name": "Сосновка", "Unom": 10, "address": "ВЛ 10 кВ Горка"}}, {"type": "Feature", "geometry": {"type": "Point", "coordinates": [38.285641, 59.346532]}, "properties": {"name": "Цильмино", "Unom": 10, "address": "ВЛ 10 кВ Горка"}}, {"type": "Feature", "geometry": {"type": "Point", "coordinates": [38.522333, 59.307706]}, "properties": {"name": "Андруково", "Unom": 10, "address": "ВЛ 10 кВ Квасюнино-2"}}, {"type": "Feature", "geometry": {"type": "Point", "coordinates": [38.460431, 59.388066]}, "properties": {"name": "Андрюшино", "Unom": 10, "address": "ВЛ 10 кВ Шигоево"}}, {"type": "Feature", "geometry": {"type": "Point", "coordinates": [38.474304, 59.327642]}, "properties": {"name": "Анисимово-2", "Unom": 10, "address": "ВЛ 10 кВ Ершово"}}, {"type": "Feature", "geometry": {"type": "Point", "coordinates": [38.795491, 59.428634]}, "properties": {"name": "Артемьево", "Unom": 10, "address": "ВЛ 10 кВ Шипицино"}}, {"type": "Feature", "geometry": {"type": "Point", "coordinates": [38.699654, 59.132079]}, "properties": {"name": "Б.Ивановское", "Unom": 10, "address": "ВЛ 10 кВ Покровское"}}, {"type": "Feature", "geometry": {"type": "Point", "coordinates": [38.554063, 59.190965]}, "properties": {"name": "Барово", "Unom": 10, "address": "ВЛ 10 кВ Подолец"}}, {"type": "Feature", "geometry": {"type": "Point", "coordinates": [38.528609, 59.289112]}, "properties": {"name": "Береговая", "Unom": 10, "address": "ВЛ 10 кВ Малинуха-2"}}, {"type": "Feature", "geometry": {"type": "Point", "coordinates": [38.363986, 59.556465]}, "properties": {"name": "Березник", "Unom": 10, "address": "ВЛ 10 кВ Киргоды"}}, {"type": "Feature", "geometry": {"type": "Point", "coordinates": [38.204799, 59.241606]}, "properties": {"name": "Бирючево", "Unom": 10, "address": "ВЛ 10 кВ Соколье"}}, {"type": "Feature", "geometry": {"type": "Point", "coordinates": [38.80766, 59.138117]}, "properties": {"name": "Братково", "Unom": 10, "address": "ВЛ 10 кВ Братково"}}, {"type": "Feature", "geometry": {"type": "Point", "coordinates": [38.618814, 59.37351]}, "properties": {"name": "Брыкино", "Unom": 10, "address": "ВЛ 10 кВ Искра"}}, {"type": "Feature", "geometry": {"type": "Point", "coordinates": [38.591797, 59.121508]}, "properties": {"name": "Васильевское", "Unom": 10, "address": "ВЛ 10 кВ Покровское"}}, {"type": "Feature", "geometry": {"type": "Point", "coordinates": [39.032643, 59.1176]}, "properties": {"name": "Воронцово", "Unom": 10, "address": "ВЛ 10 кВ Ларионово"}}, {"type": "Feature", "geometry": {"type": "Point", "coordinates": [38.597595, 59.313425]}, "properties": {"name": "Гаврилово", "Unom": 10, "address": "ВЛ 10 кВ Кусты"}}, {"type": "Feature", "geometry": {"type": "Point", "coordinates": [39.015378, 59.107099]}, "properties": {"name": "Глобена-Кожевниково", "Unom": 10, "address": "ВЛ 10 кВ Митицино"}}, {"type": "Feature", "geometry": {"type": "Point", "coordinates": [38.479982, 59.465971]}, "properties": {"name": "Горка", "Unom": 10, "address": "ВЛ 10 кВ Киргоды"}}, {"type": "Feature", "geometry": {"type": "Point", "coordinates": [38.287185, 59.271521]}, "properties": {"name": "Демидово", "Unom": 10, "address": "ВЛ 10 кВ Демидово"}}, {"type": "Feature", "geometry": {"type": "Point", "coordinates": [38.632484, 59.21995]}, "properties": {"name": "Демсино", "Unom": 10, "address": "ВЛ 10 кВ Встреча"}}, {"type": "Feature", "geometry": {"type": "Point", "coordinates": [38.346804, 59.162594]}, "properties": {"name": "Добрец", "Unom": 10, "address": "ВЛ 10 кВ Дурасово"}}, {"type": "Feature", "geometry": {"type": "Point", "coordinates": [38.970948, 59.108832]}, "properties": {"name": "Домшино", "Unom": 10, "address": "ВЛ 10 кВ Катаево"}}, {"type": "Feature", "geometry": {"type": "Point", "coordinates": [38.612766, 59.284113]}, "properties": {"name": "Дуброво", "Unom": 10, "address": "ВЛ 10 кВ Келбуй"}}, {"type": "Feature", "geometry": {"type": "Point", "coordinates": [38.706884, 59.46581]}, "properties": {"name": "Думино", "Unom": 10, "address": "ВЛ 10 кВ Думино"}}, {"type": "Feature", "geometry": {"type": "Point", "coordinates": [38.322445, 59.14346]}, "properties": {"name": "Едома", "Unom": 10, "address": "ВЛ 10 кВ Добрец"}}, {"type": "Feature", "geometry": {"type": "Point", "coordinates": [38.472403, 59.173187]}, "properties": {"name": "Екимовское", "Unom": 10, "address": "ВЛ 10 кВ Екимовское"}}, {"type": "Feature", "geometry": {"type": "Point", "coordinates": [38.561315, 59.388825]}, "properties": {"name": "Жабино", "Unom": 10, "address": "ВЛ 10 кВ Шигоево"}}, {"type": "Feature", "geometry": {"type": "Point", "coordinates": [38.332378, 59.351708]}, "properties": {"name": "Заозерье", "Unom": 10, "address": "ВЛ 10 кВ Горка"}}, {"type": "Feature", "geometry": {"type": "Point", "coordinates": [38.670215, 59.26424]}, "properties": {"name": "Зерноток", "Unom": 10, "address": "ВЛ 10 кВ Келбуй"}}, {"type": "Feature", "geometry": {"type": "Point", "coordinates": [38.38576, 59.268418]}, "properties": {"name": "Иванково", "Unom": 10, "address": "ВЛ 10 кВ Ершово"}}, {"type": "Feature", "geometry": {"type": "Point", "coordinates": [38.383731, 59.231165]}, "properties": {"name": "ИП Шексна", "Unom": 10, "address": "ВЛ 10 кВ Аристово"}}, {"type": "Feature", "geometry": {"type": "Point", "coordinates": [38.445728, 59.377683]}, "properties": {"name": "Ирма-2", "Unom": 10, "address": "ВЛ 10 кВ Киргоды"}}, {"type": "Feature", "geometry": {"type": "Point", "coordinates": [38.36723, 59.561383]}, "properties": {"name": "Камешник", "Unom": 10, "address": "ВЛ 10 кВ Киргоды"}}, {"type": "Feature", "geometry": {"type": "Point", "coordinates": [38.476258, 59.511921]}, "properties": {"name": "Камешница", "Unom": 10, "address": "ВЛ 10 кВ Киргоды"}}, {"type": "Feature", "geometry": {"type": "Point", "coordinates": [38.728303, 59.214865]}, "properties": {"name": "Коротково", "Unom": 10, "address": "ВЛ 10 кВ РТР"}}, {"type": "Feature", "geometry": {"type": "Point", "coordinates": [38.708323, 59.417012]}, "properties": {"name": "Котельная", "Unom": 10, "address": "ВЛ 10 кВ Шипицино"}}, {"type": "Feature", "geometry": {"type": "Point", "coordinates": [38.335352, 59.165839]}, "properties": {"name": "Красный холм", "Unom": 10, "address": "ВЛ 10 кВ Дурасово"}}, {"type": "Feature", "geometry": {"type": "Point", "coordinates": [38.770024, 59.426824]}, "properties": {"name": "Кузьминское", "Unom": 10, "address": "ВЛ 10 кВ Шипицино"}}, {"type": "Feature", "geometry": {"type": "Point", "coordinates": [38.667503, 59.2773]}, "properties": {"name": "Курья", "Unom": 10, "address": "ВЛ 10 кВ Келбуй"}}, {"type": "Feature", "geometry": {"type": "Point", "coordinates": [39.061842, 58.980834]}, "properties": {"name": "Ларионово", "Unom": 10, "address": "ВЛ 10 кВ Ларионово"}}, {"type": "Feature", "geometry": {"type": "Point", "coordinates": [38.617188, 59.269184]}, "properties": {"name": "ЛМС", "Unom": 10, "address": "ВЛ 10 кВ Келбуй"}}, {"type": "Feature", "geometry": {"type": "Point", "coordinates": [38.544414, 59.221644]}, "properties": {"name": "Лютчик", "Unom": 10, "address": "ВЛ 10 кВ Лютчик"}}, {"type": "Feature", "geometry": {"type": "Point", "coordinates": [38.716894, 59.41825]}, "properties": {"name": "М.завод", "Unom": 10, "address": "ВЛ 10 кВ Шипицино"}}, {"type": "Feature", "geometry": {"type": "Point", "coordinates": [38.698373, 59.391011]}, "properties": {"name": "М.Овинец", "Unom": 10, "address": "ВЛ 10 кВ Овинец"}}, {"type": "Feature", "geometry": {"type": "Point", "coordinates": [38.675784, 59.419646]}, "properties": {"name": "Мальино", "Unom": 10, "address": "ВЛ 10 кВ Копылово"}}, {"type": "Feature", "geometry": {"type": "Point", "coordinates": [38.483649, 59.376345]}, "properties": {"name": "Матвеевская", "Unom": 10, "address": "ВЛ 10 кВ Шигоево"}}, {"type": "Feature", "geometry": {"type": "Point", "coordinates": [38.524671, 59.16463]}, "properties": {"name": "Мачево", "Unom": 10, "address": "ВЛ 10 кВ Мачево"}}, {"type": "Feature", "geometry": {"type": "Point", "coordinates": [38.535734, 59.61082]}, "properties": {"name": "МТМ", "Unom": 10, "address": "ВЛ 10 кВ Марьино"}}, {"type": "Feature", "geometry": {"type": "Point", "coordinates": [39.001419, 59.11411]}, "properties": {"name": "МТМ", "Unom": 10, "address": "ВЛ 10 кВ Митицино"}}, {"type": "Feature", "geometry": {"type": "Point", "coordinates": [38.616371, 59.196113]}, "properties": {"name": "Мыс", "Unom": 10, "address": "ВЛ 10 кВ Подолец"}}, {"type": "Feature", "geometry": {"type": "Point", "coordinates": [38.681433, 59.351219]}, "properties": {"name": "Назарово", "Unom": 10, "address": "ВЛ 10 кВ Медвежье"}}, {"type": "Feature", "geometry": {"type": "Point", "coordinates": [38.753394, 59.209462]}, "properties": {"name": "Нефедково", "Unom": 10, "address": "ВЛ 10 кВ РТР"}}, {"type": "Feature", "geometry": {"type": "Point", "coordinates": [38.494329, 59.492365]}, "properties": {"name": "Ново", "Unom": 10, "address": "ВЛ 10 кВ Киргоды"}}, {"type": "Feature", "geometry": {"type": "Point", "coordinates": [38.407412, 59.246025]}, "properties": {"name": "Обухово", "Unom": 10, "address": "ВЛ 10 кВ Аристово"}}, {"type": "Feature", "geometry": {"type": "Point", "coordinates": [38.465917, 59.137916]}, "properties": {"name": "Остров", "Unom": 10, "address": "ВЛ 10 кВ Потеряево"}}, {"type": "Feature", "geometry": {"type": "Point", "coordinates": [38.61445, 59.124851]}, "properties": {"name": "Осютино", "Unom": 10, "address": "ВЛ 10 кВ Покровское"}}, {"type": "Feature", "geometry": {"type": "Point", "coordinates": [38.630103, 59.34758]}, "properties": {"name": "Очистные №2", "Unom": 10, "address": "ВЛ 10 кВ Чаромское"}}, {"type": "Feature", "geometry": {"type": "Point", "coordinates": [38.67309, 59.239829]}, "properties": {"name": "Пахомово", "Unom": 10, "address": "ВЛ 10 кВ Встреча"}}, {"type": "Feature", "geometry": {"type": "Point", "coordinates": [38.582155, 59.237113]}, "properties": {"name": "Пестово", "Unom": 10, "address": "ВЛ 10 кВ Малинуха-1"}}, {"type": "Feature", "geometry": {"type": "Point", "coordinates": [38.614247, 59.150923]}, "properties": {"name": "Подолец", "Unom": 10, "address": "ВЛ 10 кВ Подолец"}}, {"type": "Feature", "geometry": {"type": "Point", "coordinates": [38.216845, 59.22864]}, "properties": {"name": "Покрово", "Unom": 10, "address": "ВЛ 10 кВ Соколье"}}, {"type": "Feature", "geometry": {"type": "Point", "coordinates": [38.647342, 59.305289]}, "properties": {"name": "Потеряево", "Unom": 10, "address": "ВЛ 10 кВ Медвежъе"}}, {"type": "Feature", "geometry": {"type": "Point", "coordinates": [38.799654, 59.419022]}, "properties": {"name": "Починок", "Unom": 10, "address": "ВЛ 10 кВ Шипицино"}}, {"type": "Feature", "geometry": {"type": "Point", "coordinates": [38.538159, 59.18575]}, "properties": {"name": "Пронино", "Unom": 10, "address": "ВЛ 10 кВ Подолец"}}, {"type": "Feature", "geometry": {"type": "Point", "coordinates": [38.524042, 59.367653]}, "properties": {"name": "Пыжеево", "Unom": 10, "address": "ВЛ 10 кВ Шигоево"}}, {"type": "Feature", "geometry": {"type": "Point", "coordinates": [38.488165, 59.485258]}, "properties": {"name": "Раменье-1", "Unom": 10, "address": "ВЛ 10 кВ Киргоды"}}, {"type": "Feature", "geometry": {"type": "Point", "coordinates": [38.595888, 59.160186]}, "properties": {"name": "Рылово", "Unom": 10, "address": "ВЛ 10 кВ Подолец"}}, {"type": "Feature", "geometry": {"type": "Point", "coordinates": [38.66624, 59.264061]}, "properties": {"name": "Селецкая", "Unom": 10, "address": "ВЛ 10 кВ Келбуй"}}, {"type": "Feature", "geometry": {"type": "Point", "coordinates": [38.624458, 59.218453]}, "properties": {"name": "Слизово-1", "Unom": 10, "address": "ВЛ 10 кВ Слизово"}}, {"type": "Feature", "geometry": {"type": "Point", "coordinates": [38.928405, 59.131997]}, "properties": {"name": "Столовая", "Unom": 10, "address": "ВЛ 10 кВ Чернеево-2"}}, {"type": "Feature", "geometry": {"type": "Point", "coordinates": [38.382362, 59.273945]}, "properties": {"name": "Сямичи", "Unom": 10, "address": "ВЛ 10 кВ Ершово"}}, {"type": "Feature", "geometry": {"type": "Point", "coordinates": [38.782373, 59.428185]}, "properties": {"name": "Телибаново", "Unom": 10, "address": "ВЛ 10 кВ Шипицино"}}, {"type": "Feature", "geometry": {"type": "Point", "coordinates": [38.538338, 59.53099]}, "properties": {"name": "ТСН-2", "Unom": 10, "address": "ВЛ 10 кВ Марьино"}}, {"type": "Feature", "geometry": {"type": "Point", "coordinates": [38.520764, 59.60339]}, "properties": {"name": "Тяпино", "Unom": 10, "address": "ВЛ 10 кВ К-с Тяпино"}}, {"type": "Feature", "geometry": {"type": "Point", "coordinates": [38.366507, 59.195898]}, "properties": {"name": "Ферма", "Unom": 10, "address": "ВЛ 10 кВ Добрец"}}, {"type": "Feature", "geometry": {"type": "Point", "coordinates": [38.539324, 59.56018]}, "properties": {"name": "Ферма", "Unom": 10, "address": "ВЛ 10 кВ Марьино"}}, {"type": "Feature", "geometry": {"type": "Point", "coordinates": [38.857929, 59.202636]}, "properties": {"name": "Ц.усадьба №1", "Unom": 10, "address": "ВЛ 10 кВ Поселок"}}, {"type": "Feature", "geometry": {"type": "Point", "coordinates": [38.855729, 59.201236]}, "properties": {"name": "Ц.усадьба №3", "Unom": 10, "address": "ВЛ 10 кВ Поселок"}}, {"type": "Feature", "geometry": {"type": "Point", "coordinates": [38.722246, 59.361466]}, "properties": {"name": "Шелухино", "Unom": 10, "address": "ВЛ 10 кВ Овинец"}}, {"type": "Feature", "geometry": {"type": "Point", "coordinates": [38.990998, 59.115835]}, "properties": {"name": "Школа", "Unom": 10, "address": "ВЛ 10 кВ Ларионово"}}, {"type": "Feature", "geometry": {"type": "Point", "coordinates": [38.307167, 59.177768]}, "properties": {"name": "Школа", "Unom": 10, "address": "ВЛ 10 кВ Пача-1"}}, {"type": "Feature", "geometry": {"type": "Point", "coordinates": [38.626847, 59.383231]}, "properties": {"name": "Школа", "Unom": 10, "address": "ВЛ 10 кВ Усадьба"}}, {"type": "Feature", "geometry": {"type": "Point", "coordinates": [38.62937, 59.388942]}, "properties": {"name": "АВМ", "Unom": 10, "address": "ВЛ 10 кВ Ретранслятор"}}, {"type": "Feature", "geometry": {"type": "Point", "coordinates": [38.61203, 59.343547]}, "properties": {"name": "Алексеево", "Unom": 10, "address": "ВЛ 10 кВ Искра"}}, {"type": "Feature", "geometry": {"type": "Point", "coordinates": [39.024875, 59.1946]}, "properties": {"name": "Алексино", "Unom": 10, "address": "ВЛ 10 кВ Ларионово"}}, {"type": "Feature", "geometry": {"type": "Point", "coordinates": [38.588746, 59.389345]}, "properties": {"name": "Васьково", "Unom": 10, "address": "ВЛ 10 кВ Шигоево"}}, {"type": "Feature", "geometry": {"type": "Point", "coordinates": [39.057624, 59.154448]}, "properties": {"name": "Волково", "Unom": 10, "address": "ВЛ 10 кВ Волково"}}, {"type": "Feature", "geometry": {"type": "Point", "coordinates": [38.42396, 59.364943]}, "properties": {"name": "Воркопь", "Unom": 10, "address": "ВЛ 10 кВ Воркопь"}}, {"type": "Feature", "geometry": {"type": "Point", "coordinates": [38.590194, 59.259943]}, "properties": {"name": "Гаражи", "Unom": 10, "address": "ВЛ 10 кВ Им.Кирова"}}, {"type": "Feature", "geometry": {"type": "Point", "coordinates": [39.100041, 58.971397]}, "properties": {"name": "Гвоздево", "Unom": 10, "address": "ВЛ 10 кВ Ларионово"}}, {"type": "Feature", "geometry": {"type": "Point", "coordinates": [38.456558, 59.546534]}, "properties": {"name": "Гостевой дом", "Unom": 10, "address": "ВЛ 10 кВ Киргоды"}}, {"type": "Feature", "geometry": {"type": "Point", "coordinates": [38.407307, 59.255971]}, "properties": {"name": "Дьяконовская-1", "Unom": 10, "address": "ВЛ 10 кВ Ершово"}}, {"type": "Feature", "geometry": {"type": "Point", "coordinates": [38.405786, 59.262419]}, "properties": {"name": "Дьяконовская-2", "Unom": 10, "address": "ВЛ 10 кВ Ершово"}}, {"type": "Feature", "geometry": {"type": "Point", "coordinates": [38.409764, 59.360682]}, "properties": {"name": "Ершово-1", "Unom": 10, "address": "ВЛ 10 кВ Школа"}}, {"type": "Feature", "geometry": {"type": "Point", "coordinates": [38.571159, 59.388088]}, "properties": {"name": "Ивашево", "Unom": 10, "address": "ВЛ 10 кВ Шигоево"}}, {"type": "Feature", "geometry": {"type": "Point", "coordinates": [38.340008, 59.3627]}, "properties": {"name": "Игнатовское", "Unom": 10, "address": "ВЛ 10 кВ Горка"}}, {"type": "Feature", "geometry": {"type": "Point", "coordinates": [38.444817, 59.383129]}, "properties": {"name": "Ирма-1", "Unom": 10, "address": "ВЛ 10 кВ Киргоды"}}, {"type": "Feature", "geometry": {"type": "Point", "coordinates": [38.943384, 59.8305]}, "properties": {"name": "Катаево", "Unom": 10, "address": "ВЛ 10 кВ Катаево"}}, {"type": "Feature", "geometry": {"type": "Point", "coordinates": [38.622784, 59.383094]}, "properties": {"name": "Княже", "Unom": 10, "address": "ВЛ 10 кВ Усадьба"}}, {"type": "Feature", "geometry": {"type": "Point", "coordinates": [38.76351, 59.102345]}, "properties": {"name": "Котельная №1", "Unom": 10, "address": "ВЛ 10 кВ Любомирово"}}, {"type": "Feature", "geometry": {"type": "Point", "coordinates": [38.763426, 59.10242]}, "properties": {"name": "Котельная №2", "Unom": 10, "address": "ВЛ 10 кВ Думино"}}, {"type": "Feature", "geometry": {"type": "Point", "coordinates": [38.381003, 59.57428]}, "properties": {"name": "ЛПХ-2", "Unom": 10, "address": "ВЛ 10 кВ Киргоды"}}, {"type": "Feature", "geometry": {"type": "Point", "coordinates": [38.541434, 59.196608]}, "properties": {"name": "Лукинки", "Unom": 10, "address": "ВЛ 10 кВ Подолец"}}, {"type": "Feature", "geometry": {"type": "Point", "coordinates": [38.41484, 59.344229]}, "properties": {"name": "Льгово", "Unom": 10, "address": "ВЛ 10 кВ Ершово"}}, {"type": "Feature", "geometry": {"type": "Point", "coordinates": [38.632957, 59.387925]}, "properties": {"name": "Льноток", "Unom": 10, "address": "ВЛ 10 кВ Ретранслятор"}}, {"type": "Feature", "geometry": {"type": "Point", "coordinates": [38.454212, 59.209251]}, "properties": {"name": "Нифантово-1", "Unom": 10, "address": "ВЛ 10 кВ Тырканово"}}, {"type": "Feature", "geometry": {"type": "Point", "coordinates": [38.48769, 59.502943]}, "properties": {"name": "Ново-1", "Unom": 10, "address": "ВЛ 10 кВ Киргоды"}}, {"type": "Feature", "geometry": {"type": "Point", "coordinates": [38.492176, 59.497605]}, "properties": {"name": "Ново-2", "Unom": 10, "address": "ВЛ 10 кВ Киргоды"}}, {"type": "Feature", "geometry": {"type": "Point", "coordinates": [38.697484, 59.127278]}, "properties": {"name": "ОКЦ", "Unom": 10, "address": "ВЛ 10 кВ Покровское"}}, {"type": "Feature", "geometry": {"type": "Point", "coordinates": [38.493786, 59.189211]}, "properties": {"name": "Пилорама", "Unom": 10, "address": "ВЛ 10 кВ Потеряево"}}, {"type": "Feature", "geometry": {"type": "Point", "coordinates": [38.385709, 59.369308]}, "properties": {"name": "Поддубье", "Unom": 10, "address": "ВЛ 10 кВ Киргоды"}}, {"type": "Feature", "geometry": {"type": "Point", "coordinates": [38.684936, 59.132831]}, "properties": {"name": "Покровское №2", "Unom": 10, "address": "ВЛ 10 кВ Покровское"}}, {"type": "Feature", "geometry": {"type": "Point", "coordinates": [38.360375, 59.270355]}, "properties": {"name": "Поляна", "Unom": 10, "address": "ВЛ 10 кВ Аристово"}}, {"type": "Feature", "geometry": {"type": "Point", "coordinates": [38.423732, 59.137231]}, "properties": {"name": "Потеряево", "Unom": 10, "address": "ВЛ 10 кВ Потеряево"}}, {"type": "Feature", "geometry": {"type": "Point", "coordinates": [38.512042, 59.1933]}, "properties": {"name": "Прогресс-1", "Unom": 10, "address": "ВЛ 10 кВ Подолец"}}, {"type": "Feature", "geometry": {"type": "Point", "coordinates": [38.271135, 59.214777]}, "properties": {"name": "Ст.перекачки №2", "Unom": 10, "address": "ВЛ 10 кВ Демидово"}}, {"type": "Feature", "geometry": {"type": "Point", "coordinates": [38.833779, 59.96147]}, "properties": {"name": "Сухоломово", "Unom": 10, "address": "ВЛ 10 кВ Любомирово"}}, {"type": "Feature", "geometry": {"type": "Point", "coordinates": [38.79325, 59.417071]}, "properties": {"name": "Сыромяткино", "Unom": 10, "address": "ВЛ 10 кВ Шипицино"}}, {"type": "Feature", "geometry": {"type": "Point", "coordinates": [38.442573, 59.198878]}, "properties": {"name": "Тырканово", "Unom": 10, "address": "ВЛ 10 кВ Тырканово"}}, {"type": "Feature", "geometry": {"type": "Point", "coordinates": [38.803518, 59.130506]}, "properties": {"name": "Ферма", "Unom": 10, "address": "ВЛ 10 кВ Братково"}}, {"type": "Feature", "geometry": {"type": "Point", "coordinates": [38.41724, 59.35448]}, "properties": {"name": "Ферма", "Unom": 10, "address": "ВЛ 10 кВ Воркопь"}}, {"type": "Feature", "geometry": {"type": "Point", "coordinates": [38.281833, 59.267737]}, "properties": {"name": "Ферма", "Unom": 10, "address": "ВЛ 10 кВ Демидово"}}, {"type": "Feature", "geometry": {"type": "Point", "coordinates": [38.632902, 59.381748]}, "properties": {"name": "Ферма", "Unom": 10, "address": "ВЛ 10 кВ Искра"}}, {"type": "Feature", "geometry": {"type": "Point", "coordinates": [38.657736, 59.425498]}, "properties": {"name": "Ферма", "Unom": 10, "address": "ВЛ 10 кВ Копылово"}}, {"type": "Feature", "geometry": {"type": "Point", "coordinates": [38.52013, 59.375048]}, "properties": {"name": "Ферма", "Unom": 10, "address": "ВЛ 10 кВ Шигоево"}}, {"type": "Feature", "geometry": {"type": "Point", "coordinates": [38.359516, 59.163351]}, "properties": {"name": "Ферма Добрец", "Unom": 10, "address": "ВЛ 10 кВ Добрец"}}, {"type": "Feature", "geometry": {"type": "Point", "coordinates": [39.054844, 58.981435]}, "properties": {"name": "Фоминское", "Unom": 10, "address": "ВЛ 10 кВ Ларионово"}}, {"type": "Feature", "geometry": {"type": "Point", "coordinates": [38.9237, 59.13118]}, "properties": {"name": "Ц.усадьба", "Unom": 10, "address": "ВЛ 10 кВ Чернеево-2"}}, {"type": "Feature", "geometry": {"type": "Point", "coordinates": [38.617341, 59.340761]}, "properties": {"name": "Чаромское-1", "Unom": 10, "address": "ВЛ 10 кВ Чаромское"}}, {"type": "Feature", "geometry": {"type": "Point", "coordinates": [38.621816, 59.340172]}, "properties": {"name": "Чаромское-2", "Unom": 10, "address": "ВЛ 10 кВ Чаромское"}}, {"type": "Feature", "geometry": {"type": "Point", "coordinates": [38.76111, 59.102125]}, "properties": {"name": "Школа", "Unom": 10, "address": "ВЛ 10 кВ Думино"}}, {"type": "Feature", "geometry": {"type": "Point", "coordinates": [38.528725, 59.58947]}, "properties": {"name": "Юрочкино", "Unom": 10, "address": "ВЛ 10 кВ Марьино"}}, {"type": "Feature", "geometry": {"type": "Point", "coordinates": [38.638677, 59.220683]}, "properties": {"name": "Льноток", "Unom": 10, "address": "ВЛ 10 кВ Встреча"}}, {"type": "Feature", "geometry": {"type": "Point", "coordinates": [38.365124, 59.368657]}, "properties": {"name": "Александрино", "Unom": 10, "address": "ВЛ 10 кВ Горка"}}, {"type": "Feature", "geometry": {"type": "Point", "coordinates": [38.473119, 59.29017]}, "properties": {"name": "Панфилово", "Unom": 10, "address": "ВЛ 10 кВ к-с Тяпино"}}, {"type": "Feature", "geometry": {"type": "Point", "coordinates": [38.695227, 59.12004]}, "properties": {"name": "Савинское", "Unom": 10, "address": "ВЛ 10 кВ Покровское"}}, {"type": "Feature", "geometry": {"type": "Point", "coordinates": [38.673079, 59.394609]}, "properties": {"name": "оманниково", "Unom": 10, "address": "ВЛ 10 кВ Овинец"}}, {"type": "Feature", "geometry": {"type": "Point", "coordinates": [38.503407, 59.113953]}, "properties": {"name": "Б.Панькино", "Unom": 10, "address": "ВЛ 10 кВ Марьино"}}, {"type": "Feature", "geometry": {"type": "Point", "coordinates": [38.591064, 59.250964]}, "properties": {"name": "Борисово", "Unom": 10, "address": "ВЛ 10 кВ Малинуха-1"}}, {"type": "Feature", "geometry": {"type": "Point", "coordinates": [38.979396, 59.90955]}, "properties": {"name": "Дор", "Unom": 10, "address": "ВЛ 10 кВ Ларионово"}}, {"type": "Feature", "geometry": {"type": "Point", "coordinates": [38.256839, 59.352751]}, "properties": {"name": "Дуброво", "Unom": 10, "address": "ВЛ 10 кВ Горка"}}, {"type": "Feature", "geometry": {"type": "Point", "coordinates": [38.674212, 59.379615]}, "properties": {"name": "Дупельново", "Unom": 10, "address": "ВЛ 10 кВ Овинец"}}, {"type": "Feature", "geometry": {"type": "Point", "coordinates": [39.10429, 59.94029]}, "properties": {"name": "Зыцево", "Unom": 10, "address": "ВЛ 10 кВ Светилово"}}, {"type": "Feature", "geometry": {"type": "Point", "coordinates": [38.955686, 59.11494]}, "properties": {"name": "Коншево", "Unom": 10, "address": "ВЛ 10 кВ Братково"}}, {"type": "Feature", "geometry": {"type": "Point", "coordinates": [38.340986, 59.3607]}, "properties": {"name": "Мастерские", "Unom": 10, "address": "ВЛ 10 кВ Горка"}}, {"type": "Feature", "geometry": {"type": "Point", "coordinates": [38.873596, 59.85819]}, "properties": {"name": "Молодищево", "Unom": 10, "address": "ВЛ 10 кВ Катаево"}}, {"type": "Feature", "geometry": {"type": "Point", "coordinates": [38.475156, 59.515327]}, "properties": {"name": "Новая Камешница", "Unom": 10, "address": "ВЛ 10 кВ Киргоды"}}, {"type": "Feature", "geometry": {"type": "Point", "coordinates": [38.718687, 59.231447]}, "properties": {"name": "Панькино", "Unom": 10, "address": "ВЛ 10 кВ РТР"}}, {"type": "Feature", "geometry": {"type": "Point", "coordinates": [39.096209, 59.106041]}, "properties": {"name": "Папушино", "Unom": 10, "address": "ВЛ 10 кВ Светилово"}}, {"type": "Feature", "geometry": {"type": "Point", "coordinates": [38.924974, 59.136082]}, "properties": {"name": "Пилорама", "Unom": 10, "address": "ВЛ 10 кВ Чернеево-2"}}, {"type": "Feature", "geometry": {"type": "Point", "coordinates": [38.583729, 59.22995]}, "properties": {"name": "Полигон", "Unom": 10, "address": "ВЛ 10 кВ Слизово"}}, {"type": "Feature", "geometry": {"type": "Point", "coordinates": [38.527985, 59.378711]}, "properties": {"name": "РТР №1", "Unom": 10, "address": "ВЛ 10 кВ Ретранслятор"}}, {"type": "Feature", "geometry": {"type": "Point", "coordinates": [38.630126, 59.404897]}, "properties": {"name": "Саунино", "Unom": 10, "address": "ВЛ 10 кВ Ретранслятор"}}, {"type": "Feature", "geometry": {"type": "Point", "coordinates": [38.936371, 59.15378]}, "properties": {"name": "Симаново", "Unom": 10, "address": "ВЛ 10 кВ Чернеево-1"}}, {"type": "Feature", "geometry": {"type": "Point", "coordinates": [38.779092, 59.146959]}, "properties": {"name": "Толстиково", "Unom": 10, "address": "ВЛ 10 кВ Братково"}}, {"type": "Feature", "geometry": {"type": "Point", "coordinates": [39.098345, 59.61831]}, "properties": {"name": "Точка", "Unom": 10, "address": "ВЛ 10 кВ Светилово"}}, {"type": "Feature", "geometry": {"type": "Point", "coordinates": [38.789299, 59.142793]}, "properties": {"name": "Цибино", "Unom": 10, "address": "ВЛ 10 кВ Братково"}}, {"type": "Feature", "geometry": {"type": "Point", "coordinates": [38.614662, 59.26426]}, "properties": {"name": "АЗС", "Unom": 10, "address": "ВЛ 10 кВ Келбуй"}}, {"type": "Feature", "geometry": {"type": "Point", "coordinates": [38.464855, 59.326158]}, "properties": {"name": "Анисимово-1", "Unom": 10, "address": "ВЛ 10 кВ Ершово"}}, {"type": "Feature", "geometry": {"type": "Point", "coordinates": [38.414235, 59.241557]}, "properties": {"name": "Восход", "Unom": 10, "address": "ВЛ 10 кВ Аристово"}}, {"type": "Feature", "geometry": {"type": "Point", "coordinates": [38.462707, 59.43585]}, "properties": {"name": "Дачи-2", "Unom": 10, "address": "ВЛ 10 кВ Киргоды"}}, {"type": "Feature", "geometry": {"type": "Point", "coordinates": [38.527967, 59.279476]}, "properties": {"name": "Деревня №1", "Unom": 10, "address": "ВЛ 10 кВ Малинуха-1"}}, {"type": "Feature", "geometry": {"type": "Point", "coordinates": [38.528027, 59.279527]}, "properties": {"name": "Деревня №2", "Unom": 10, "address": "ВЛ 10 кВ Малинуха-2"}}, {"type": "Feature", "geometry": {"type": "Point", "coordinates": [38.409117, 59.357426]}, "properties": {"name": "Ершово-2", "Unom": 10, "address": "ВЛ 10 кВ Ершово"}}, {"type": "Feature", "geometry": {"type": "Point", "coordinates": [38.53043, 59.278717]}, "properties": {"name": "К-с Малинуха", "Unom": 10, "address": "ВЛ 10 кВ Малинуха-2"}}, {"type": "Feature", "geometry": {"type": "Point", "coordinates": [38.578943, 59.262879]}, "properties": {"name": "К-с Чуровский №1", "Unom": 10, "address": "ВЛ 10 кВ к-с Чуровский"}}, {"type": "Feature", "geometry": {"type": "Point", "coordinates": [38.523372, 59.32676]}, "properties": {"name": "Квасюнино", "Unom": 10, "address": "ВЛ 10 кВ Квасюнино-1"}}, {"type": "Feature", "geometry": {"type": "Point", "coordinates": [38.927591, 59.137544]}, "properties": {"name": "Комплекс", "Unom": 10, "address": "ВЛ 10 кВ Чернеево-1"}}, {"type": "Feature", "geometry": {"type": "Point", "coordinates": [38.583107, 59.262157]}, "properties": {"name": "Кормоцех", "Unom": 10, "address": "ВЛ 10 кВ К-с Чуровский"}}, {"type": "Feature", "geometry": {"type": "Point", "coordinates": [38.700185, 59.414896]}, "properties": {"name": "Мастерские", "Unom": 10, "address": "ВЛ 10 кВ Овинец"}}, {"type": "Feature", "geometry": {"type": "Point", "coordinates": [38.628438, 59.385902]}, "properties": {"name": "Мастерские", "Unom": 10, "address": "ВЛ 10 кВ Усадьба"}}, {"type": "Feature", "geometry": {"type": "Point", "coordinates": [38.50784, 59.376468]}, "properties": {"name": "Мастерские", "Unom": 10, "address": "ВЛ 10 кВ Шигоево"}}, {"type": "Feature", "geometry": {"type": "Point", "coordinates": [38.61437, 59.345174]}, "properties": {"name": "МТМ", "Unom": 10, "address": "ВЛ 10 кВ Искра"}}, {"type": "Feature", "geometry": {"type": "Point", "coordinates": [38.923414, 59.135031]}, "properties": {"name": "МТМ", "Unom": 10, "address": "ВЛ 10 кВ Чернеево-1"}}, {"type": "Feature", "geometry": {"type": "Point", "coordinates": [38.340653, 59.363182]}, "properties": {"name": "Пилорама", "Unom": 10, "address": "ВЛ 10 кВ Горка"}}, {"type": "Feature", "geometry": {"type": "Point", "coordinates": [38.320139, 59.18168]}, "properties": {"name": "Пилорама", "Unom": 10, "address": "ВЛ 10 кВ Пача-1"}}, {"type": "Feature", "geometry": {"type": "Point", "coordinates": [38.634858, 59.342882]}, "properties": {"name": "Пилорама", "Unom": 10, "address": "ВЛ 10 кВ Чаромское"}}, {"type": "Feature", "geometry": {"type": "Point", "coordinates": [38.585289, 59.252141]}, "properties": {"name": "Пограево", "Unom": 10, "address": "ВЛ 10 кВ Малинуха-1"}}, {"type": "Feature", "geometry": {"type": "Point", "coordinates": [38.690966, 59.132878]}, "properties": {"name": "Покровское №1", "Unom": 10, "address": "ВЛ 10 кВ Покровское"}}, {"type": "Feature", "geometry": {"type": "Point", "coordinates": [38.501672, 59.192681]}, "properties": {"name": "Прогресс-2", "Unom": 10, "address": "ВЛ 10 кВ Подолец"}}, {"type": "Feature", "geometry": {"type": "Point", "coordinates": [38.495706, 59.19629]}, "properties": {"name": "Прогресс-3", "Unom": 10, "address": "ВЛ 10 кВ Подолец"}}, {"type": "Feature", "geometry": {"type": "Point", "coordinates": [38.704336, 59.412486]}, "properties": {"name": "Сизьма", "Unom": 10, "address": "ВЛ 10 кВ Овинец"}}, {"type": "Feature", "geometry": {"type": "Point", "coordinates": [38.620668, 59.214374]}, "properties": {"name": "Слизово-2", "Unom": 10, "address": "ВЛ 10 кВ Слизово"}}, {"type": "Feature", "geometry": {"type": "Point", "coordinates": [38.626497, 59.341602]}, "properties": {"name": "Тарасово", "Unom": 10, "address": "ВЛ 10 кВ Чаромское"}}, {"type": "Feature", "geometry": {"type": "Point", "coordinates": [38.334023, 59.362408]}, "properties": {"name": "Ферма", "Unom": 10, "address": "ВЛ 10 кВ Горка"}}, {"type": "Feature", "geometry": {"type": "Point", "coordinates": [38.983289, 58.980193]}, "properties": {"name": "Ферма", "Unom": 10, "address": "ВЛ 10 кВ Ларионово"}}, {"type": "Feature", "geometry": {"type": "Point", "coordinates": [38.596072, 59.259694]}, "properties": {"name": "Ц.усадьба №2", "Unom": 10, "address": "ВЛ 10 кВ им.Кирова"}}, {"type": "Feature", "geometry": {"type": "Point", "coordinates": [38.853553, 59.198734]}, "properties": {"name": "Ц.усадьба №2", "Unom": 10, "address": "ВЛ 10 кВ Поселок"}}, {"type": "Feature", "geometry": {"type": "Point", "coordinates": [38.403353, 59.361045]}, "properties": {"name": "Школа", "Unom": 10, "address": "ВЛ 10 кВ Школа"}}, {"type": "Feature", "geometry": {"type": "Point", "coordinates": [38.555962, 59.289988]}, "properties": {"name": "Гологузка", "Unom": 10, "address": "ВЛ 10 кВ Малинуха-2"}}, {"type": "Feature", "geometry": {"type": "Point", "coordinates": [38.346943, 59.546207]}, "properties": {"name": "Дерягино", "Unom": 10, "address": "ВЛ 10 кВ Киргоды"}}, {"type": "Feature", "geometry": {"type": "Point", "coordinates": [38.74194, 59.259942]}, "properties": {"name": "Елесино", "Unom": 10, "address": "ВЛ 10 кВ Келбуй"}}, {"type": "Feature", "geometry": {"type": "Point", "coordinates": [38.748587, 59.276601]}, "properties": {"name": "Келбуй", "Unom": 10, "address": "ВЛ 10 кВ Келбуй"}}, {"type": "Feature", "geometry": {"type": "Point", "coordinates": [38.83719, 59.85641]}, "properties": {"name": "Курьяково", "Unom": 10, "address": "ВЛ 10 кВ Любомирово"}}, {"type": "Feature", "geometry": {"type": "Point", "coordinates": [39.030966, 59.107229]}, "properties": {"name": "Леушкино", "Unom": 10, "address": "ВЛ 10 кВ Митицино"}}, {"type": "Feature", "geometry": {"type": "Point", "coordinates": [38.302977, 59.145856]}, "properties": {"name": "Маурино", "Unom": 10, "address": "ВЛ 10 кВ Добрец"}}, {"type": "Feature", "geometry": {"type": "Point", "coordinates": [38.756532, 59.113521]}, "properties": {"name": "Новоселка", "Unom": 10, "address": "ВЛ 10 кВ Любомирово"}}, {"type": "Feature", "geometry": {"type": "Point", "coordinates": [38.839884, 59.128521]}, "properties": {"name": "Первино", "Unom": 10, "address": "ВЛ 10 кВ Братково"}}, {"type": "Feature", "geometry": {"type": "Point", "coordinates": [38.707808, 59.379131]}, "properties": {"name": "Рамешка", "Unom": 10, "address": "ВЛ 10 кВ Овинец"}}, {"type": "Feature", "geometry": {"type": "Point", "coordinates": [38.677293, 59.319647]}, "properties": {"name": "Рамешки", "Unom": 10, "address": "ВЛ 10 кВ Медвежье"}}, {"type": "Feature", "geometry": {"type": "Point", "coordinates": [38.618392, 59.392954]}, "properties": {"name": "Фоминское", "Unom": 10, "address": "ВЛ 10 кВ Ретранслятор"}}, {"type": "Feature", "geometry": {"type": "Point", "coordinates": [38.406691, 59.331878]}, "properties": {"name": "Афанасово", "Unom": 10, "address": "ВЛ 10 кВ Ершово"}}, {"type": "Feature", "geometry": {"type": "Point", "coordinates": [38.337334, 59.198853]}, "properties": {"name": "Антипино", "Unom": 10, "address": "ВЛ 10 кВ Заря-2"}}, {"type": "Feature", "geometry": {"type": "Point", "coordinates": [38.269099, 59.234319]}, "properties": {"name": "Берендюха", "Unom": 10, "address": "ВЛ 10 кВ Демидово"}}, {"type": "Feature", "geometry": {"type": "Point", "coordinates": [38.434565, 59.25312]}, "properties": {"name": "Вакарьино", "Unom": 10, "address": "ВЛ 10 кВ к-с Тяпино"}}, {"type": "Feature", "geometry": {"type": "Point", "coordinates": [38.939092, 59.70617]}, "properties": {"name": "Великое", "Unom": 10, "address": "ВЛ 10 кВ Катаево"}}, {"type": "Feature", "geometry": {"type": "Point", "coordinates": [38.536888, 59.260774]}, "properties": {"name": "Высоково", "Unom": 10, "address": "ВЛ 10 кВ Малинуха-1"}}, {"type": "Feature", "geometry": {"type": "Point", "coordinates": [38.400432, 59.177299]}, "properties": {"name": "Гари", "Unom": 10, "address": "ВЛ 10 кВ Добрец"}}, {"type": "Feature", "geometry": {"type": "Point", "coordinates": [38.750519, 59.21711]}, "properties": {"name": "Горка", "Unom": 10, "address": "ВЛ 10 кВ РТР"}}, {"type": "Feature", "geometry": {"type": "Point", "coordinates": [38.226155, 59.214781]}, "properties": {"name": "Горка", "Unom": 10, "address": "ВЛ 10 кВ Соколье"}}, {"type": "Feature", "geometry": {"type": "Point", "coordinates": [38.892828, 59.81191]}, "properties": {"name": "Давыдово", "Unom": 10, "address": "ВЛ 10 кВ Катаево"}}, {"type": "Feature", "geometry": {"type": "Point", "coordinates": [38.921578, 59.118073]}, "properties": {"name": "Дьяконица", "Unom": 10, "address": "ВЛ 10 кВ Братково"}}, {"type": "Feature", "geometry": {"type": "Point", "coordinates": [38.618093, 59.387523]}, "properties": {"name": "Еремеево", "Unom": 10, "address": "ВЛ 10 кВ Усадьба"}}, {"type": "Feature", "geometry": {"type": "Point", "coordinates": [38.969305, 59.126734]}, "properties": {"name": "Зубово", "Unom": 10, "address": "ВЛ 10 кВ Чернеево-2"}}, {"type": "Feature", "geometry": {"type": "Point", "coordinates": [38.602887, 59.328052]}, "properties": {"name": "Игай", "Unom": 10, "address": "ВЛ 10 кВ Кусты"}}, {"type": "Feature", "geometry": {"type": "Point", "coordinates": [38.511065, 59.23281]}, "properties": {"name": "Капустино", "Unom": 10, "address": "ВЛ 10 кВ Мачево"}}, {"type": "Feature", "geometry": {"type": "Point", "coordinates": [38.410725, 59.355043]}, "properties": {"name": "КЗС", "Unom": 10, "address": "ВЛ 10 кВ Воркопь"}}, {"type": "Feature", "geometry": {"type": "Point", "coordinates": [38.698909, 59.318424]}, "properties": {"name": "Красново", "Unom": 10, "address": "ВЛ 10 кВ Медвежье"}}, {"type": "Feature", "geometry": {"type": "Point", "coordinates": [38.390918, 59.334894]}, "properties": {"name": "Логиново", "Unom": 10, "address": "ВЛ 10 кВ Аристово"}}, {"type": "Feature", "geometry": {"type": "Point", "coordinates": [38.497974, 59.105805]}, "properties": {"name": "М.Панькино", "Unom": 10, "address": "ВЛ 10 кВ Марьино"}}, {"type": "Feature", "geometry": {"type": "Point", "coordinates": [39.065308, 58.977387]}, "properties": {"name": "Маяк", "Unom": 10, "address": "ВЛ 10 кВ Ларионово"}}, {"type": "Feature", "geometry": {"type": "Point", "coordinates": [38.791392, 59.85836]}, "properties": {"name": "Миронково", "Unom": 10, "address": "ВЛ 10 кВ Любомирово"}}, {"type": "Feature", "geometry": {"type": "Point", "coordinates": [38.427488, 59.130333]}, "properties": {"name": "Митькино", "Unom": 10, "address": "ВЛ 10 кВ Потеряево"}}, {"type": "Feature", "geometry": {"type": "Point", "coordinates": [38.793945, 59.115005]}, "properties": {"name": "Н.Горка", "Unom": 10, "address": "ВЛ 10 кВ Думино"}}, {"type": "Feature", "geometry": {"type": "Point", "coordinates": [38.735134, 59.126934]}, "properties": {"name": "Назарово", "Unom": 10, "address": "ВЛ 10 кВ Покровское"}}, {"type": "Feature", "geometry": {"type": "Point", "coordinates": [38.743836, 59.220649]}, "properties": {"name": "Павшино", "Unom": 10, "address": "ВЛ 10 кВ РТР"}}, {"type": "Feature", "geometry": {"type": "Point", "coordinates": [38.294295, 59.239642]}, "properties": {"name": "Пашнец", "Unom": 10, "address": "ВЛ 10 кВ Демидово"}}, {"type": "Feature", "geometry": {"type": "Point", "coordinates": [38.646929, 59.443338]}, "properties": {"name": "Поздеево", "Unom": 10, "address": "ВЛ 10 кВ Копылово"}}, {"type": "Feature", "geometry": {"type": "Point", "coordinates": [38.625903, 59.37043]}, "properties": {"name": "Починок", "Unom": 10, "address": "ВЛ 10 кВ Искра"}}, {"type": "Feature", "geometry": {"type": "Point", "coordinates": [38.930353, 59.169286]}, "properties": {"name": "Пронино", "Unom": 10, "address": "ВЛ 10 кВ Чернеево-1"}}, {"type": "Feature", "geometry": {"type": "Point", "coordinates": [38.658615, 59.417463]}, "properties": {"name": "Прядино", "Unom": 10, "address": "ВЛ 10 кВ Копылово"}}, {"type": "Feature", "geometry": {"type": "Point", "coordinates": [38.66405, 59.158976]}, "properties": {"name": "Роица", "Unom": 10, "address": "ВЛ 10 кВ Роица"}}, {"type": "Feature", "geometry": {"type": "Point", "coordinates": [38.636411, 59.132274]}, "properties": {"name": "Самсоница", "Unom": 10, "address": "ВЛ 10 кВ Покровское"}}, {"type": "Feature", "geometry": {"type": "Point", "coordinates": [38.789761, 59.117201]}, "properties": {"name": "Связист", "Unom": 10, "address": "ВЛ 10 кВ Думино"}}, {"type": "Feature", "geometry": {"type": "Point", "coordinates": [38.209294, 59.264211]}, "properties": {"name": "Соколье-2", "Unom": 10, "address": "ВЛ 10 кВ Соколье"}}, {"type": "Feature", "geometry": {"type": "Point", "coordinates": [38.923702, 59.8241]}, "properties": {"name": "Спицы", "Unom": 10, "address": "ВЛ 10 кВ Катаево"}}, {"type": "Feature", "geometry": {"type": "Point", "coordinates": [38.672323, 59.347863]}, "properties": {"name": "Ступново", "Unom": 10, "address": "ВЛ 10 кВ Медвежъе"}}, {"type": "Feature", "geometry": {"type": "Point", "coordinates": [38.655607, 59.298912]}, "properties": {"name": "Трошино", "Unom": 10, "address": "ВЛ 10 кВ Медвежъе"}}, {"type": "Feature", "geometry": {"type": "Point", "coordinates": [38.681849, 59.400867]}, "properties": {"name": "Уварово", "Unom": 10, "address": "ВЛ 10 кВ Овинец"}}, {"type": "Feature", "geometry": {"type": "Point", "coordinates": [38.281612, 59.513927]}, "properties": {"name": "Устьяново", "Unom": 10, "address": "ВЛ 10 кВ Киргоды"}}, {"type": "Feature", "geometry": {"type": "Point", "coordinates": [38.688781, 59.260499]}, "properties": {"name": "Федорово", "Unom": 10, "address": "ВЛ 10 кВ Келбуй"}}, {"type": "Feature", "geometry": {"type": "Point", "coordinates": [38.615747, 59.332735]}, "properties": {"name": "Федотово", "Unom": 10, "address": "ВЛ 10 кВ Кусты"}}, {"type": "Feature", "geometry": {"type": "Point", "coordinates": [38.602192, 59.120297]}, "properties": {"name": "Ферма-Осютино", "Unom": 10, "address": "ВЛ 10 кВ Покровское"}}, {"type": "Feature", "geometry": {"type": "Point", "coordinates": [38.819785, 59.112976]}, "properties": {"name": "Ходырево", "Unom": 10, "address": "ВЛ 10 кВ Любомирово"}}, {"type": "Feature", "geometry": {"type": "Point", "coordinates": [38.515112, 59.347333]}, "properties": {"name": "Хорошево", "Unom": 10, "address": "ВЛ 10 кВ Шигоево"}}, {"type": "Feature", "geometry": {"type": "Point", "coordinates": [38.296035, 59.181775]}, "properties": {"name": "Шайма", "Unom": 10, "address": "ВЛ 10 кВ Соколье"}}, {"type": "Feature", "geometry": {"type": "Point", "coordinates": [38.854325, 59.391598]}, "properties": {"name": "Шипицино", "Unom": 10, "address": "ВЛ 10 кВ Шипицино"}}, {"type": "Feature", "geometry": {"type": "Point", "coordinates": [38.486868, 59.47578]}, "properties": {"name": "Школа", "Unom": 10, "address": "ВЛ 10 кВ Киргоды"}}, {"type": "Feature", "geometry": {"type": "Point", "coordinates": [38.304836, 59.181487]}, "properties": {"name": "АВМ", "Unom": 10, "address": "ВЛ 10 кВ Пача-2"}}, {"type": "Feature", "geometry": {"type": "Point", "coordinates": [38.92255, 59.133783]}, "properties": {"name": "АВМ", "Unom": 10, "address": "ВЛ 10 кВ Чернеево-1"}}, {"type": "Feature", "geometry": {"type": "Point", "coordinates": [38.624753, 59.339586]}, "properties": {"name": "Зерноток-2", "Unom": 10, "address": "ВЛ 10 кВ Медвежье"}}, {"type": "Feature", "geometry": {"type": "Point", "coordinates": [38.644246, 59.219996]}, "properties": {"name": "К-с Демсино №1", "Unom": 10, "address": "ВЛ 10 кВ Встреча"}}, {"type": "Feature", "geometry": {"type": "Point", "coordinates": [38.644317, 59.219962]}, "properties": {"name": "К-с Демсино №2", "Unom": 10, "address": "ВЛ 10 кВ Слизово"}}, {"type": "Feature", "geometry": {"type": "Point", "coordinates": [38.578806, 59.262672]}, "properties": {"name": "К-с Чуровский №2", "Unom": 10, "address": "ВЛ 10 кВ Малинуха-1"}}, {"type": "Feature", "geometry": {"type": "Point", "coordinates": [38.753697, 59.99452]}, "properties": {"name": "КЗС", "Unom": 10, "address": "ВЛ 10 кВ Думино"}}, {"type": "Feature", "geometry": {"type": "Point", "coordinates": [38.313339, 59.18201]}, "properties": {"name": "КЗС", "Unom": 10, "address": "ВЛ 10 кВ Пача-1"}}, {"type": "Feature", "geometry": {"type": "Point", "coordinates": [38.625012, 59.218611]}, "properties": {"name": "КЗС", "Unom": 10, "address": "ВЛ 10 кВ Слизово"}}, {"type": "Feature", "geometry": {"type": "Point", "coordinates": [38.27375, 59.275254]}, "properties": {"name": "Коттеджи", "Unom": 10, "address": "ВЛ 10 кВ Демидово"}}, {"type": "Feature", "geometry": {"type": "Point", "coordinates": [38.494884, 59.190354]}, "properties": {"name": "Льноток Кренево", "Unom": 10, "address": "ВЛ 10 кВ Потеряево"}}, {"type": "Feature", "geometry": {"type": "Point", "coordinates": [38.656253, 59.310108]}, "properties": {"name": "М/сушилка", "Unom": 10, "address": "ВЛ 10 кВ Медвежъе"}}, {"type": "Feature", "geometry": {"type": "Point", "coordinates": [38.538189, 59.202446]}, "properties": {"name": "Малое Митенино", "Unom": 10, "address": "ВЛ 10 кВ Подолец"}}, {"type": "Feature", "geometry": {"type": "Point", "coordinates": [38.630219, 59.218635]}, "properties": {"name": "Мастерские", "Unom": 10, "address": "ВЛ 10 кВ Встреча"}}, {"type": "Feature", "geometry": {"type": "Point", "coordinates": [39.04685, 58.980878]}, "properties": {"name": "МТМ", "Unom": 10, "address": "ВЛ 10 кВ Ларионово"}}, {"type": "Feature", "geometry": {"type": "Point", "coordinates": [38.386419, 59.209428]}, "properties": {"name": "Парк", "Unom": 10, "address": "ВЛ 10 кВ Парк-2"}}, {"type": "Feature", "geometry": {"type": "Point", "coordinates": [38.314175, 59.179724]}, "properties": {"name": "Пача", "Unom": 10, "address": "ВЛ 10 кВ Пача-2"}}, {"type": "Feature", "geometry": {"type": "Point", "coordinates": [38.4143, 59.358792]}, "properties": {"name": "Пилорама", "Unom": 10, "address": "ВЛ 10 кВ Воркопь"}}, {"type": "Feature", "geometry": {"type": "Point", "coordinates": [38.58853, 59.26552]}, "properties": {"name": "СХТ", "Unom": 10, "address": "ВЛ 10 кВ СХТ"}}, {"type": "Feature", "geometry": {"type": "Point", "coordinates": [38.586938, 59.259406]}, "properties": {"name": "Ферма", "Unom": 10, "address": "ВЛ 10 кВ Им.Кирова"}}, {"type": "Feature", "geometry": {"type": "Point", "coordinates": [38.686819, 59.138345]}, "properties": {"name": "Ферма", "Unom": 10, "address": "ВЛ 10 кВ Покровское"}}, {"type": "Feature", "geometry": {"type": "Point", "coordinates": [38.547464, 59.268633]}, "properties": {"name": "Васильево", "Unom": 10, "address": "ВЛ 10 кВ Малинуха-1"}}, {"type": "Feature", "geometry": {"type": "Point", "coordinates": [38.568625, 59.251209]}, "properties": {"name": "Водозабор", "Unom": 10, "address": "ВЛ 10 кВ Малинуха-1"}}, {"type": "Feature", "geometry": {"type": "Point", "coordinates": [38.677606, 59.110662]}, "properties": {"name": "Леоново", "Unom": 10, "address": "ВЛ 10 кВ Покровское"}}, {"type": "Feature", "geometry": {"type": "Point", "coordinates": [38.703678, 59.55858]}, "properties": {"name": "Нокшино", "Unom": 10, "address": "ВЛ 10 кВ Думино"}}, {"type": "Feature", "geometry": {"type": "Point", "coordinates": [38.506652, 59.90805]}, "properties": {"name": "Гороховская", "Unom": 10, "address": "ВЛ 10 кВ Марьино"}}, {"type": "Feature", "geometry": {"type": "Point", "coordinates": [38.588355, 59.175562]}, "properties": {"name": "Дорки", "Unom": 10, "address": "ВЛ 10 кВ Подолец"}}, {"type": "Feature", "geometry": {"type": "Point", "coordinates": [38.56869, 59.10844]}, "properties": {"name": "Ковшово", "Unom": 10, "address": "ВЛ 10 кВ Покровское"}}, {"type": "Feature", "geometry": {"type": "Point", "coordinates": [38.444385, 59.35451]}, "properties": {"name": "Кузминское", "Unom": 10, "address": "ВЛ 10 кВ К-с Тяпино"}}, {"type": "Feature", "geometry": {"type": "Point", "coordinates": [38.348933, 59.390096]}, "properties": {"name": "М.Мушня", "Unom": 10, "address": "ВЛ 10 кВ Киргоды"}}, {"type": "Feature", "geometry": {"type": "Point", "coordinates": [38.559598, 59.178764]}, "properties": {"name": "Мальгино", "Unom": 10, "address": "ВЛ 10 кВ Подолец"}}, {"type": "Feature", "geometry": {"type": "Point", "coordinates": [38.65768, 59.226674]}, "properties": {"name": "Патрекичево", "Unom": 10, "address": "ВЛ 10 кВ Встреча"}}, {"type": "Feature", "geometry": {"type": "Point", "coordinates": [38.810681, 59.137738]}, "properties": {"name": "Притыкино", "Unom": 10, "address": "ВЛ 10 кВ Братково"}}, {"type": "Feature", "geometry": {"type": "Point", "coordinates": [38.489481, 59.487783]}, "properties": {"name": "Раменье-2", "Unom": 10, "address": "ВЛ 10 кВ Киргоды"}}, {"type": "Feature", "geometry": {"type": "Point", "coordinates": [38.763872, 59.157994]}, "properties": {"name": "Славянка", "Unom": 10, "address": "ВЛ 10 кВ Покровское"}}, {"type": "Feature", "geometry": {"type": "Point", "coordinates": [38.210452, 59.257818]}, "properties": {"name": "Соколье", "Unom": 10, "address": "ВЛ 10 кВ Соколье"}}, {"type": "Feature", "geometry": {"type": "Point", "coordinates": [38.584925, 59.24434]}, "properties": {"name": "Старово", "Unom": 10, "address": "ВЛ 10 кВ Малинуха-1"}}, {"type": "Feature", "geometry": {"type": "Point", "coordinates": [38.346542, 59.369747]}, "properties": {"name": "Тирково", "Unom": 10, "address": "ВЛ 10 кВ Горка"}}, {"type": "Feature", "geometry": {"type": "Point", "coordinates": [38.244389, 59.21667]}, "properties": {"name": "Шапкино", "Unom": 10, "address": "ВЛ 10 кВ Соколье"}}, {"type": "Feature", "geometry": {"type": "Point", "coordinates": [38.620196, 59.3379]}, "properties": {"name": "АВМ", "Unom": 10, "address": "ВЛ 10 кВ Кусты"}}, {"type": "Feature", "geometry": {"type": "Point", "coordinates": [38.787706, 59.95203]}, "properties": {"name": "АВМ", "Unom": 10, "address": "ВЛ 10 кВ Любомирово"}}, {"type": "Feature", "geometry": {"type": "Point", "coordinates": [38.482625, 59.438145]}, "properties": {"name": "Анкимарово", "Unom": 10, "address": "ВЛ 10 кВ Шигоево"}}, {"type": "Feature", "geometry": {"type": "Point", "coordinates": [38.507663, 59.461118]}, "properties": {"name": "Б.Двор", "Unom": 10, "address": "ВЛ 10 кВ Шигоево"}}, {"type": "Feature", "geometry": {"type": "Point", "coordinates": [38.374273, 59.386137]}, "properties": {"name": "Б.Мушня", "Unom": 10, "address": "ВЛ 10 кВ Киргоды"}}, {"type": "Feature", "geometry": {"type": "Point", "coordinates": [38.485832, 59.180868]}, "properties": {"name": "Братовец", "Unom": 10, "address": "ВЛ 10 кВ Потеряево"}}, {"type": "Feature", "geometry": {"type": "Point", "coordinates": [38.434735, 59.111276]}, "properties": {"name": "Ванеево", "Unom": 10, "address": "ВЛ 10 кВ Потеряево"}}, {"type": "Feature", "geometry": {"type": "Point", "coordinates": [39.010752, 59.2748]}, "properties": {"name": "Велюшево", "Unom": 10, "address": "ВЛ 10 кВ Ларионово"}}, {"type": "Feature", "geometry": {"type": "Point", "coordinates": [38.59696, 59.346206]}, "properties": {"name": "Водокачка", "Unom": 10, "address": "ВЛ 10 кВ Квасюнино-1"}}, {"type": "Feature", "geometry": {"type": "Point", "coordinates": [38.564435, 59.340295]}, "properties": {"name": "Высоково", "Unom": 10, "address": "ВЛ 10 кВ Квасюнино-2"}}, {"type": "Feature", "geometry": {"type": "Point", "coordinates": [38.515262, 59.145327]}, "properties": {"name": "ВЭМ", "Unom": 10, "address": "ВЛ 10 кВ Потеряево"}}, {"type": "Feature", "geometry": {"type": "Point", "coordinates": [38.70957, 59.214442]}, "properties": {"name": "Герасимово", "Unom": 10, "address": "ВЛ 10 кВ РТР"}}, {"type": "Feature", "geometry": {"type": "Point", "coordinates": [38.364197, 59.360392]}, "properties": {"name": "Горка-1", "Unom": 10, "address": "ВЛ 10 кВ Горка"}}, {"type": "Feature", "geometry": {"type": "Point", "coordinates": [38.358995, 59.358596]}, "properties": {"name": "Горка-2", "Unom": 10, "address": "ВЛ 10 кВ Горка"}}, {"type": "Feature", "geometry": {"type": "Point", "coordinates": [38.57726, 59.11378]}, "properties": {"name": "Грамотино", "Unom": 10, "address": "ВЛ 10 кВ Покровское"}}, {"type": "Feature", "geometry": {"type": "Point", "coordinates": [38.415387, 59.17665]}, "properties": {"name": "Григорьевское", "Unom": 10, "address": "ВЛ 10 кВ к-с Тяпино"}}, {"type": "Feature", "geometry": {"type": "Point", "coordinates": [39.075989, 59.144947]}, "properties": {"name": "Губино", "Unom": 10, "address": "ВЛ 10 кВ Волково"}}, {"type": "Feature", "geometry": {"type": "Point", "coordinates": [38.664431, 59.334444]}, "properties": {"name": "Демино", "Unom": 10, "address": "ВЛ 10 кВ Медвежье"}}, {"type": "Feature", "geometry": {"type": "Point", "coordinates": [38.47662, 59.195214]}, "properties": {"name": "Деминское", "Unom": 10, "address": "ВЛ 10 кВ Потеряево"}}, {"type": "Feature", "geometry": {"type": "Point", "coordinates": [38.712749, 59.422339]}, "properties": {"name": "Дубки", "Unom": 10, "address": "ВЛ 10 кВ Шипицино"}}, {"type": "Feature", "geometry": {"type": "Point", "coordinates": [38.769962, 59.97]}, "properties": {"name": "Еремеево", "Unom": 10, "address": "ВЛ 10 кВ Любомирово"}}, {"type": "Feature", "geometry": {"type": "Point", "coordinates": [39.027658, 59.11085]}, "properties": {"name": "Ефимово", "Unom": 10, "address": "ВЛ 10 кВ Ларионово"}}, {"type": "Feature", "geometry": {"type": "Point", "coordinates": [38.812937, 59.169513]}, "properties": {"name": "Жилье льнозавода", "Unom": 10, "address": "ВЛ 10 кВ Поселок"}}, {"type": "Feature", "geometry": {"type": "Point", "coordinates": [38.262458, 59.368694]}, "properties": {"name": "Заболотье", "Unom": 10, "address": "ВЛ 10 кВ Горка"}}, {"type": "Feature", "geometry": {"type": "Point", "coordinates": [38.520199, 59.504987]}, "properties": {"name": "Золотуха", "Unom": 10, "address": "ВЛ 10 кВ Шигоево"}}, {"type": "Feature", "geometry": {"type": "Point", "coordinates": [38.595207, 59.270617]}, "properties": {"name": "Игумново", "Unom": 10, "address": "ВЛ 10 кВ Келбуй"}}, {"type": "Feature", "geometry": {"type": "Point", "coordinates": [38.588346, 59.219688]}, "properties": {"name": "Ильинское", "Unom": 10, "address": "ВЛ 10 кВ Слизово"}}, {"type": "Feature", "geometry": {"type": "Point", "coordinates": [38.339041, 59.532271]}, "properties": {"name": "Каликино", "Unom": 10, "address": "ВЛ 10 кВ Киргоды"}}, {"type": "Feature", "geometry": {"type": "Point", "coordinates": [38.818518, 59.167595]}, "properties": {"name": "Карамитка", "Unom": 10, "address": "ВЛ 10 кВ Поселок"}}, {"type": "Feature", "geometry": {"type": "Point", "coordinates": [38.650335, 59.397853]}, "properties": {"name": "Кащеево", "Unom": 10, "address": "ВЛ 10 кВ Княже"}}, {"type": "Feature", "geometry": {"type": "Point", "coordinates": [38.691813, 59.128296]}, "properties": {"name": "КЗС", "Unom": 10, "address": "ВЛ 10 кВ Покровское"}}, {"type": "Feature", "geometry": {"type": "Point", "coordinates": [38.365619, 59.19104]}, "properties": {"name": "Кичино", "Unom": 10, "address": "ВЛ 10 кВ Добрец"}}, {"type": "Feature", "geometry": {"type": "Point", "coordinates": [38.523549, 59.332924]}, "properties": {"name": "Копосиха", "Unom": 10, "address": "ВЛ 10 кВ Квасюнино-1"}}, {"type": "Feature", "geometry": {"type": "Point", "coordinates": [38.671866, 59.426015]}, "properties": {"name": "Копылово", "Unom": 10, "address": "ВЛ 10 кВ Копылово"}}, {"type": "Feature", "geometry": {"type": "Point", "coordinates": [38.749623, 59.97365]}, "properties": {"name": "Котово", "Unom": 10, "address": "ВЛ 10 кВ Любомирово"}}, {"type": "Feature", "geometry": {"type": "Point", "coordinates": [38.99026, 58.980154]}, "properties": {"name": "Красное", "Unom": 10, "address": "ВЛ 10 кВ Ларионово"}}, {"type": "Feature", "geometry": {"type": "Point", "coordinates": [38.638613, 59.246676]}, "properties": {"name": "Кукино", "Unom": 10, "address": "ВЛ 10 кВ Встреча"}}, {"type": "Feature", "geometry": {"type": "Point", "coordinates": [38.516884, 59.484209]}, "properties": {"name": "Левинская", "Unom": 10, "address": "ВЛ 10 кВ Шигоево"}}, {"type": "Feature", "geometry": {"type": "Point", "coordinates": [38.538229, 59.300701]}, "properties": {"name": "Лысково", "Unom": 10, "address": "ВЛ 10 кВ Малинуха-2"}}, {"type": "Feature", "geometry": {"type": "Point", "coordinates": [38.661006, 59.131866]}, "properties": {"name": "Максимовское", "Unom": 10, "address": "ВЛ 10 кВ Покровское"}}, {"type": "Feature", "geometry": {"type": "Point", "coordinates": [38.563032, 59.79302]}, "properties": {"name": "Марьино", "Unom": 10, "address": "ВЛ 10 кВ Марьино"}}, {"type": "Feature", "geometry": {"type": "Point", "coordinates": [38.693925, 59.402645]}, "properties": {"name": "Марьино", "Unom": 10, "address": "ВЛ 10 кВ Овинец"}}, {"type": "Feature", "geometry": {"type": "Point", "coordinates": [38.651997, 59.310381]}, "properties": {"name": "Медвежье", "Unom": 10, "address": "ВЛ 10 кВ Медвежье"}}, {"type": "Feature", "geometry": {"type": "Point", "coordinates": [38.94775, 59.16148]}, "properties": {"name": "Митьково", "Unom": 10, "address": "ВЛ 10 кВ Чернеево-1"}}, {"type": "Feature", "geometry": {"type": "Point", "coordinates": [38.60711, 59.206098]}, "properties": {"name": "Михайловское", "Unom": 10, "address": "ВЛ 10 кВ Слизово"}}, {"type": "Feature", "geometry": {"type": "Point", "coordinates": [38.797884, 59.173918]}, "properties": {"name": "Молодки", "Unom": 10, "address": "ВЛ 10 кВ Поселок"}}, {"type": "Feature", "geometry": {"type": "Point", "coordinates": [38.540134, 59.292468]}, "properties": {"name": "Мышкино", "Unom": 10, "address": "ВЛ 10 кВ Малинуха-2"}}, {"type": "Feature", "geometry": {"type": "Point", "coordinates": [39.007264, 59.121386]}, "properties": {"name": "Нестерово", "Unom": 10, "address": "ВЛ 10 кВ Светилово"}}, {"type": "Feature", "geometry": {"type": "Point", "coordinates": [38.87748, 59.143426]}, "properties": {"name": "Орловка", "Unom": 10, "address": "ВЛ 10 кВ Ребячьево"}}, {"type": "Feature", "geometry": {"type": "Point", "coordinates": [38.630207, 59.347578]}, "properties": {"name": "Очистные №1", "Unom": 10, "address": "ВЛ 10 кВ Искра"}}, {"type": "Feature", "geometry": {"type": "Point", "coordinates": [38.813606, 59.99132]}, "properties": {"name": "Павликово", "Unom": 10, "address": "ВЛ 10 кВ Любомирово"}}, {"type": "Feature", "geometry": {"type": "Point", "coordinates": [38.784274, 59.413091]}, "properties": {"name": "Павловское", "Unom": 10, "address": "ВЛ 10 кВ Шипицино"}}, {"type": "Feature", "geometry": {"type": "Point", "coordinates": [38.911162, 59.108128]}, "properties": {"name": "Пестово", "Unom": 10, "address": "ВЛ 10 кВ Братково"}}, {"type": "Feature", "geometry": {"type": "Point", "coordinates": [38.702474, 59.376083]}, "properties": {"name": "Плосково", "Unom": 10, "address": "ВЛ 10 кВ Овинец"}}, {"type": "Feature", "geometry": {"type": "Point", "coordinates": [38.418787, 59.364506]}, "properties": {"name": "Погорелка", "Unom": 10, "address": "ВЛ 10 кВ Воркопь"}}, {"type": "Feature", "geometry": {"type": "Point", "coordinates": [38.769137, 59.126116]}, "properties": {"name": "Погорелка", "Unom": 10, "address": "ВЛ 10 кВ Любомирово"}}, {"type": "Feature", "geometry": {"type": "Point", "coordinates": [38.695441, 59.394387]}, "properties": {"name": "Поляна", "Unom": 10, "address": "ВЛ 10 кВ Овинец"}}, {"type": "Feature", "geometry": {"type": "Point", "coordinates": [38.892253, 59.62872]}, "properties": {"name": "Поповское", "Unom": 10, "address": "ВЛ 10 кВ Катаево"}}, {"type": "Feature", "geometry": {"type": "Point", "coordinates": [38.79481, 59.415938]}, "properties": {"name": "Поповское", "Unom": 10, "address": "ВЛ 10 кВ Шипицино"}}, {"type": "Feature", "geometry": {"type": "Point", "coordinates": [38.398534, 59.370156]}, "properties": {"name": "Потанино", "Unom": 10, "address": "ВЛ 10 кВ Киргоды"}}, {"type": "Feature", "geometry": {"type": "Point", "coordinates": [38.514791, 59.39638]}, "properties": {"name": "Прокино", "Unom": 10, "address": "ВЛ 10 кВ к-с Тяпино"}}, {"type": "Feature", "geometry": {"type": "Point", "coordinates": [38.478861, 59.394005]}, "properties": {"name": "Пыряево", "Unom": 10, "address": "ВЛ 10 кВ Шигоево"}}, {"type": "Feature", "geometry": {"type": "Point", "coordinates": [38.624309, 59.27347]}, "properties": {"name": "Разбуй", "Unom": 10, "address": "ВЛ 10 кВ Келбуй"}}, {"type": "Feature", "geometry": {"type": "Point", "coordinates": [38.527987, 59.378495]}, "properties": {"name": "РТР №2", "Unom": 10, "address": "ВЛ 10 кВ Шигоево"}}, {"type": "Feature", "geometry": {"type": "Point", "coordinates": [38.671985, 59.308269]}, "properties": {"name": "Сватково", "Unom": 10, "address": "ВЛ 10 кВ Медвежъе"}}, {"type": "Feature", "geometry": {"type": "Point", "coordinates": [39.094702, 59.122911]}, "properties": {"name": "Светилово", "Unom": 10, "address": "ВЛ 10 кВ Светилово"}}, {"type": "Feature", "geometry": {"type": "Point", "coordinates": [38.558336, 59.246574]}, "properties": {"name": "Сельца", "Unom": 10, "address": "ВЛ 10 кВ Малинуха-1"}}, {"type": "Feature", "geometry": {"type": "Point", "coordinates": [39.013669, 59.148492]}, "properties": {"name": "Сельцо", "Unom": 10, "address": "ВЛ 10 кВ Волково"}}, {"type": "Feature", "geometry": {"type": "Point", "coordinates": [38.636922, 59.222294]}, "properties": {"name": "Сенаж", "Unom": 10, "address": "ВЛ 10 кВ Встреча"}}, {"type": "Feature", "geometry": {"type": "Point", "coordinates": [38.496461, 59.391707]}, "properties": {"name": "Слизово", "Unom": 10, "address": "ВЛ 10 кВ Шигоево"}}, {"type": "Feature", "geometry": {"type": "Point", "coordinates": [38.544952, 59.80712]}, "properties": {"name": "Соболево", "Unom": 10, "address": "ВЛ 10 кВ Марьино"}}, {"type": "Feature", "geometry": {"type": "Point", "coordinates": [38.322674, 59.21041]}, "properties": {"name": "Соболино", "Unom": 10, "address": "ВЛ 10 кВ Заря-2"}}, {"type": "Feature", "geometry": {"type": "Point", "coordinates": [38.281799, 59.185039]}, "properties": {"name": "Соколово", "Unom": 10, "address": "ВЛ 10 кВ Соколье"}}, {"type": "Feature", "geometry": {"type": "Point", "coordinates": [38.216508, 59.263085]}, "properties": {"name": "Соколье-1", "Unom": 10, "address": "ВЛ 10 кВ Соколье"}}, {"type": "Feature", "geometry": {"type": "Point", "coordinates": [38.268064, 59.354271]}, "properties": {"name": "Сологость", "Unom": 10, "address": "ВЛ 10 кВ Горка"}}, {"type": "Feature", "geometry": {"type": "Point", "coordinates": [38.271313, 59.21483]}, "properties": {"name": "Ст.перекачки №1", "Unom": 10, "address": "ВЛ 10 кВ К-с Полежайка"}}, {"type": "Feature", "geometry": {"type": "Point", "coordinates": [38.242049, 59.209172]}, "properties": {"name": "Ст.село", "Unom": 10, "address": "ВЛ 10 кВ Соколье"}}, {"type": "Feature", "geometry": {"type": "Point", "coordinates": [38.505214, 59.470696]}, "properties": {"name": "Степановская", "Unom": 10, "address": "ВЛ 10 кВ Шигоево"}}, {"type": "Feature", "geometry": {"type": "Point", "coordinates": [38.826908, 59.206788]}, "properties": {"name": "Телевышка №1", "Unom": 10, "address": "ВЛ 10 кВ РТР"}}, {"type": "Feature", "geometry": {"type": "Point", "coordinates": [38.827007, 59.206816]}, "properties": {"name": "Телевышка №2", "Unom": 10, "address": "ВЛ 10 кВ Поселок"}}, {"type": "Feature", "geometry": {"type": "Point", "coordinates": [38.494873, 59.526021]}, "properties": {"name": "Турцево", "Unom": 10, "address": "ВЛ 10 кВ Шигоево"}}, {"type": "Feature", "geometry": {"type": "Point", "coordinates": [39.060125, 59.156919]}, "properties": {"name": "Ферма", "Unom": 10, "address": "ВЛ 10 кВ Волково"}}, {"type": "Feature", "geometry": {"type": "Point", "coordinates": [38.220281, 59.235247]}, "properties": {"name": "Ферма", "Unom": 10, "address": "ВЛ 10 кВ Соколье"}}, {"type": "Feature", "geometry": {"type": "Point", "coordinates": [38.508808, 59.511585]}, "properties": {"name": "Филяково", "Unom": 10, "address": "ВЛ 10 кВ Шигоево"}}, {"type": "Feature", "geometry": {"type": "Point", "coordinates": [38.323328, 59.169817]}, "properties": {"name": "Четвериково", "Unom": 10, "address": "ВЛ 10 кВ Дурасово"}}, {"type": "Feature", "geometry": {"type": "Point", "coordinates": [38.711209, 59.207563]}, "properties": {"name": "Чурилово", "Unom": 10, "address": "ВЛ 10 кВ РТР"}}, {"type": "Feature", "geometry": {"type": "Point", "coordinates": [38.519224, 59.373983]}, "properties": {"name": "Шигоево", "Unom": 10, "address": "ВЛ 10 кВ Шигоево"}}, {"type": "Feature", "geometry": {"type": "Point", "coordinates": [38.496823, 59.190701]}, "properties": {"name": "АВМ-1", "Unom": 10, "address": "ВЛ 10 кВ Подолец"}}, {"type": "Feature", "geometry": {"type": "Point", "coordinates": [38.596206, 59.259722]}, "properties": {"name": "Ц.усадьба №1", "Unom": 10, "address": "ВЛ 10 кВ им.Кирова"}}, {"type": "Feature", "geometry": {"type": "Point", "coordinates": [38.779492, 59.121874]}, "properties": {"name": "Комарово", "Unom": 10, "address": "ВЛ 10 кВ Думино"}}, {"type": "Feature", "geometry": {"type": "Point", "coordinates": [38.59387, 59.163098]}, "properties": {"name": "Медик", "Unom": 10, "address": "ВЛ 10 кВ Подолец"}}, {"type": "Feature", "geometry": {"type": "Point", "coordinates": [38.509243, 59.479751]}, "properties": {"name": "Новая Левинская", "Unom": 10, "address": "ВЛ 10 кВ Шигоево"}}, {"type": "Feature", "geometry": {"type": "Point", "coordinates": [38.483579, 59.482842]}, "properties": {"name": "Новое Раменье", "Unom": 10, "address": "ВЛ 10 кВ Киргоды"}}, {"type": "Feature", "geometry": {"type": "Point", "coordinates": [38.649339, 59.235806]}, "properties": {"name": "Норовка", "Unom": 10, "address": "ВЛ 10 кВ Встреча"}}, {"type": "Feature", "geometry": {"type": "Point", "coordinates": [38.896871, 59.138061]}, "properties": {"name": "Ребячьево", "Unom": 10, "address": "ВЛ 10 кВ Ребячьево"}}, {"type": "Feature", "geometry": {"type": "Point", "coordinates": [38.520301, 59.501186]}, "properties": {"name": "Золотуха-1", "Unom": 10, "address": "ВЛ 10 кВ Шигоево"}}, {"type": "Feature", "geometry": {"type": "Point", "coordinates": [38.988941, 59.115807]}, "properties": {"name": "Митицино", "Unom": 10, "address": "ВЛ 10 кВ Ларионово"}}, {"type": "Feature", "geometry": {"type": "Point", "coordinates": [38.71935, 59.360385]}, "properties": {"name": "Ворново", "Unom": 10, "address": "ВЛ 10 кВ Овинец"}}, {"type": "Feature", "geometry": {"type": "Point", "coordinates": [38.500739, 59.467568]}, "properties": {"name": "Новый Б.Двор", "Unom": 10, "address": "ВЛ 10 кВ Шигоево"}}, {"type": "Feature", "geometry": {"type": "Point", "coordinates": [38.73251, 59.210515]}, "properties": {"name": "Селино", "Unom": 10, "address": "ВЛ 10 кВ РТР"}}, {"type": "Feature", "geometry": {"type": "Point", "coordinates": [38.537728, 59.198025]}, "properties": {"name": "Митенино", "Unom": 10, "address": "ВЛ 10 кВ Подолец"}}, {"type": "Feature", "geometry": {"type": "Point", "coordinates": [38.444808, 59.208946]}, "properties": {"name": "Новое Нифантово", "Unom": 10, "address": "ВЛ 10 кВ Тырканово"}}, {"type": "Feature", "geometry": {"type": "Point", "coordinates": [38.208223, 59.22954]}, "properties": {"name": "Осташково", "Unom": 10, "address": "ВЛ 10 кВ Соколье"}}, {"type": "Feature", "geometry": {"type": "Point", "coordinates": [38.422798, 59.367124]}, "properties": {"name": "Погорелка-1", "Unom": 10, "address": "ВЛ 10 кВ Воркопь"}}, {"type": "Feature", "geometry": {"type": "Point", "coordinates": [38.516665, 59.312308]}, "properties": {"name": "Светлая", "Unom": 10, "address": "ВЛ 10 кВ Квасюнино-2"}}, {"type": "Feature", "geometry": {"type": "Point", "coordinates": [38.381207, 59.270508]}, "properties": {"name": "Ферма", "Unom": 10, "address": "ВЛ 10 кВ Ершово"}}, {"type": "Feature", "geometry": {"type": "Point", "coordinates": [38.47211, 59.373071]}, "properties": {"name": "Якунина Гора", "Unom": 10, "address": "ВЛ 10 кВ Шигоево"}}, {"type": "Feature", "geometry": {"type": "Point", "coordinates": [38.431076, 59.363614]}, "properties": {"name": "Воркопь Новая", "Unom": 10, "address": "ВЛ 10 кВ Воркопь"}}, {"type": "Feature", "geometry": {"type": "Point", "coordinates": [38.527641, 59.427]}, "properties": {"name": "Глядково", "Unom": 10, "address": "ВЛ 10 кВ Мачево"}}, {"type": "Feature", "geometry": {"type": "Point", "coordinates": [38.766544, 59.420255]}, "properties": {"name": "Еремино", "Unom": 10, "address": "ВЛ 10 кВ Шипицино"}}, {"type": "Feature", "geometry": {"type": "Point", "coordinates": [38.6142, 59.213939]}, "properties": {"name": "Коттеджи", "Unom": 10, "address": "ВЛ 10 кВ Слизово"}}, {"type": "Feature", "geometry": {"type": "Point", "coordinates": [38.429232, 59.381206]}, "properties": {"name": "Красная горка", "Unom": 10, "address": "ВЛ 10 кВ Киргоды"}}, {"type": "Feature", "geometry": {"type": "Point", "coordinates": [38.434961, 59.188994]}, "properties": {"name": "Кочино", "Unom": 10, "address": "ВЛ 10 кВ Добрец"}}, {"type": "Feature", "geometry": {"type": "Point", "coordinates": [38.536281, 59.226436]}, "properties": {"name": "Автостоянка", "Unom": 10, "address": "ВЛ 10 кВ Лютчик"}}, {"type": "Feature", "geometry": {"type": "Point", "coordinates": [38.39537, 59.361583]}, "properties": {"name": "Ершово-3", "Unom": 10, "address": "ВЛ 10 кВ Горка"}}, {"type": "Feature", "geometry": {"type": "Point", "coordinates": [38.47685, 59.220881]}, "properties": {"name": "Платон-Ш", "Unom": 10, "address": "ВЛ 10 кВ Тырканово"}}, {"type": "Feature", "geometry": {"type": "Point", "coordinates": [38.710691, 59.306445]}, "properties": {"name": "Селиваниха", "Unom": 10, "address": "ВЛ 10 кВ Медвежъе"}}, {"type": "Feature", "geometry": {"type": "Point", "coordinates": [38.34877, 59.538198]}, "properties": {"name": "Новое Каликино", "Unom": 10, "address": "ВЛ 10 кВ Киргоды"}}, {"type": "Feature", "geometry": {"type": "Point", "coordinates": [38.612139, 59.259361]}, "properties": {"name": "Улошково", "Unom": 10, "address": "ВЛ 10 кВ Встреча"}}, {"type": "Feature", "geometry": {"type": "Point", "coordinates": [38.558254, 59.178348]}, "properties": {"name": "Селино", "Unom": 10, "address": "ВЛ 10 кВ Подолец"}}]}