{"type": "FeatureCollection", "features": [{"type": "Feature", "geometry": {"type": "Point", "coordinates": [34.582464, 58.502947]}, "properties": {"name": "ПС 110 кВ Мошенское", "Unom": 110, "address": "нет данных"}}, {"type": "Feature", "geometry": {"type": "Point", "coordinates": [34.580442, 58.507483]}, "properties": {"name": "КТП-1", "Unom": 10, "address": "ул. Митта"}}, {"type": "Feature", "geometry": {"type": "Point", "coordinates": [34.580424, 58.512931]}, "properties": {"name": "КТП-2", "Unom": 10, "address": "ул. 9 Января"}}, {"type": "Feature", "geometry": {"type": "Point", "coordinates": [34.57879, 58.517996]}, "properties": {"name": "КТП-3", "Unom": 10, "address": "ул. Прогонная"}}, {"type": "Feature", "geometry": {"type": "Point", "coordinates": [34.585503, 58.517791]}, "properties": {"name": "ЗТП-4", "Unom": 10, "address": "ул. Калинина, 14б"}}, {"type": "Feature", "geometry": {"type": "Point", "coordinates": [34.588697, 58.504692]}, "properties": {"name": "ЗТП-5", "Unom": 10, "address": "Молокозавод"}}, {"type": "Feature", "geometry": {"type": "Point", "coordinates": [34.590431, 58.508066]}, "properties": {"name": "КТП-6", "Unom": 10, "address": "ул. 1 Мая"}}, {"type": "Feature", "geometry": {"type": "Point", "coordinates": [34.593262, 58.506095]}, "properties": {"name": "ЗТП-7", "Unom": 10, "address": "ул. Физкультуры, 44а"}}, {"type": "Feature", "geometry": {"type": "Point", "coordinates": [34.59286, 58.511027]}, "properties": {"name": "ЗТП-8", "Unom": 10, "address": "ул. Комсомольская, 7а"}}, {"type": "Feature", "geometry": {"type": "Point", "coordinates": [34.586245, 58.516398]}, "properties": {"name": "ЗТП-9", "Unom": 10, "address": "Школа, ул. Калинина, 24а"}}, {"type": "Feature", "geometry": {"type": "Point", "coordinates": [34.57737, 58.510331]}, "properties": {"name": "КТП-10", "Unom": 10, "address": "ул. Нагорная"}}, {"type": "Feature", "geometry": {"type": "Point", "coordinates": [34.585515, 58.504974]}, "properties": {"name": "КТП-11", "Unom": 10, "address": "РАЙПО, ул. Калинина, 62а"}}, {"type": "Feature", "geometry": {"type": "Point", "coordinates": [34.584938, 58.514189]}, "properties": {"name": "КТП-12", "Unom": 10, "address": "Церковь, ул. Калинина"}}, {"type": "Feature", "geometry": {"type": "Point", "coordinates": [34.583624, 58.517927]}, "properties": {"name": "КТП-13", "Unom": 10, "address": "ООО «Дружба»"}}, {"type": "Feature", "geometry": {"type": "Point", "coordinates": [34.579265, 58.504187]}, "properties": {"name": "ТП-14 (новая)", "Unom": 10, "address": "ул. Кировская, р-н д. 17б"}}, {"type": "Feature", "geometry": {"type": "Point", "coordinates": [34.595326, 58.517339]}, "properties": {"name": "КТП-15", "Unom": 10, "address": "ОАО «Новгородэнерго»"}}, {"type": "Feature", "geometry": {"type": "Point", "coordinates": [34.593395, 58.517272]}, "properties": {"name": "КТП-16", "Unom": 10, "address": "ОАО «Новгородэнерго»"}}, {"type": "Feature", "geometry": {"type": "Point", "coordinates": [34.586698, 58.511081]}, "properties": {"name": "КТП-17", "Unom": 10, "address": "Кинотеатр"}}, {"type": "Feature", "geometry": {"type": "Point", "coordinates": [34.57674, 58.512813]}, "properties": {"name": "КТП-18", "Unom": 10, "address": "Ретранслятор"}}, {"type": "Feature", "geometry": {"type": "Point", "coordinates": [34.586114, 58.500733]}, "properties": {"name": "КТП-19", "Unom": 10, "address": "ул. Гороховская"}}, {"type": "Feature", "geometry": {"type": "Point", "coordinates": [34.5956, 58.502987]}, "properties": {"name": "КТП-20", "Unom": 10, "address": "Льнозавод"}}, {"type": "Feature", "geometry": {"type": "Point", "coordinates": [34.588571, 58.50083]}, "properties": {"name": "ЗТП-22", "Unom": 10, "address": "Больница, ул. Калинина, 82а"}}, {"type": "Feature", "geometry": {"type": "Point", "coordinates": [34.571544, 58.514582]}, "properties": {"name": "ТП-23", "Unom": 10, "address": "ул. Окатьевская"}}, {"type": "Feature", "geometry": {"type": "Point", "coordinates": [34.595612, 58.52655]}, "properties": {"name": "ТП-24", "Unom": 10, "address": "Половниково"}}, {"type": "Feature", "geometry": {"type": "Point", "coordinates": [34.573924, 58.51007]}, "properties": {"name": "КТП-25", "Unom": 10, "address": "ул. Мелиораторов"}}, {"type": "Feature", "geometry": {"type": "Point", "coordinates": [34.590874, 58.494454]}, "properties": {"name": "КТП-26", "Unom": 10, "address": "нет данных"}}, {"type": "Feature", "geometry": {"type": "Point", "coordinates": [34.58306, 58.502849]}, "properties": {"name": "оп.1", "Unom": 6, "address": "нет данных"}}, {"type": "Feature", "geometry": {"type": "Point", "coordinates": [34.583715, 58.500724]}, "properties": {"name": "оп.6", "Unom": 6, "address": "нет данных"}}, {"type": "Feature", "geometry": {"type": "Point", "coordinates": [34.58563, 58.495002]}, "properties": {"name": "оп.14", "Unom": 6, "address": "нет данных"}}, {"type": "Feature", "geometry": {"type": "Point", "coordinates": [34.588212, 58.501144]}, "properties": {"name": "оп.36", "Unom": 6, "address": "нет данных"}}, {"type": "Feature", "geometry": {"type": "Point", "coordinates": [34.589864, 58.504012]}, "properties": {"name": "оп.43", "Unom": 6, "address": "нет данных"}}, {"type": "Feature", "geometry": {"type": "Point", "coordinates": [34.590116, 58.504454]}, "properties": {"name": "оп.45", "Unom": 6, "address": "нет данных"}}, {"type": "Feature", "geometry": {"type": "Point", "coordinates": [34.58502, 58.505149]}, "properties": {"name": "оп.65", "Unom": 6, "address": "нет данных"}}, {"type": "Feature", "geometry": {"type": "Point", "coordinates": [34.584607, 58.505962]}, "properties": {"name": "оп.63", "Unom": 6, "address": "нет данных"}}, {"type": "Feature", "geometry": {"type": "Point", "coordinates": [34.586554, 58.506621]}, "properties": {"name": "оп.72", "Unom": 6, "address": "нет данных"}}, {"type": "Feature", "geometry": {"type": "Point", "coordinates": [34.584076, 58.507257]}, "properties": {"name": "оп.60", "Unom": 6, "address": "нет данных"}}, {"type": "Feature", "geometry": {"type": "Point", "coordinates": [34.580374, 58.507061]}, "properties": {"name": "оп.11", "Unom": 6, "address": "нет данных"}}, {"type": "Feature", "geometry": {"type": "Point", "coordinates": [34.581367, 58.505018]}, "properties": {"name": "оп.8", "Unom": 6, "address": "нет данных"}}, {"type": "Feature", "geometry": {"type": "Point", "coordinates": [34.583057, 58.504709]}, "properties": {"name": "оп.6", "Unom": 6, "address": "нет данных"}}, {"type": "Feature", "geometry": {"type": "Point", "coordinates": [34.583588, 58.503429]}, "properties": {"name": "оп.1", "Unom": 6, "address": "нет данных"}}, {"type": "Feature", "geometry": {"type": "Point", "coordinates": [34.578878, 58.507108]}, "properties": {"name": "оп.14", "Unom": 6, "address": "нет данных"}}, {"type": "Feature", "geometry": {"type": "Point", "coordinates": [34.575874, 58.508081]}, "properties": {"name": "оп.18", "Unom": 6, "address": "нет данных"}}, {"type": "Feature", "geometry": {"type": "Point", "coordinates": [34.578025, 58.510477]}, "properties": {"name": "оп.22", "Unom": 6, "address": "нет данных"}}, {"type": "Feature", "geometry": {"type": "Point", "coordinates": [34.578212, 58.512791]}, "properties": {"name": "оп.27", "Unom": 6, "address": "нет данных"}}, {"type": "Feature", "geometry": {"type": "Point", "coordinates": [34.582992, 58.503516]}, "properties": {"name": "оп.1", "Unom": 6, "address": "нет данных"}}, {"type": "Feature", "geometry": {"type": "Point", "coordinates": [34.582853, 58.504547]}, "properties": {"name": "оп.5", "Unom": 6, "address": "нет данных"}}, {"type": "Feature", "geometry": {"type": "Point", "coordinates": [34.579661, 58.505119]}, "properties": {"name": "оп.8", "Unom": 6, "address": "нет данных"}}, {"type": "Feature", "geometry": {"type": "Point", "coordinates": [34.572741, 58.506346]}, "properties": {"name": "оп.15", "Unom": 6, "address": "нет данных"}}, {"type": "Feature", "geometry": {"type": "Point", "coordinates": [34.571936, 58.508252]}, "properties": {"name": "оп.19", "Unom": 6, "address": "нет данных"}}, {"type": "Feature", "geometry": {"type": "Point", "coordinates": [34.571807, 58.51487]}, "properties": {"name": "оп.31", "Unom": 6, "address": "нет данных"}}, {"type": "Feature", "geometry": {"type": "Point", "coordinates": [34.571904, 58.517655]}, "properties": {"name": "оп.37", "Unom": 6, "address": "нет данных"}}, {"type": "Feature", "geometry": {"type": "Point", "coordinates": [34.576496, 58.519969]}, "properties": {"name": "оп.43", "Unom": 6, "address": "нет данных"}}, {"type": "Feature", "geometry": {"type": "Point", "coordinates": [34.578148, 58.520843]}, "properties": {"name": "оп.45", "Unom": 6, "address": "нет данных"}}, {"type": "Feature", "geometry": {"type": "Point", "coordinates": [34.584543, 58.521649]}, "properties": {"name": "оп.50", "Unom": 6, "address": "нет данных"}}, {"type": "Feature", "geometry": {"type": "Point", "coordinates": [34.593297, 58.524193]}, "properties": {"name": "оп.60", "Unom": 6, "address": "нет данных"}}, {"type": "Feature", "geometry": {"type": "Point", "coordinates": [34.595464, 58.525229]}, "properties": {"name": "оп.63", "Unom": 6, "address": "нет данных"}}, {"type": "Feature", "geometry": {"type": "Point", "coordinates": [34.578459, 58.515604]}, "properties": {"name": "оп.35", "Unom": 6, "address": "нет данных"}}, {"type": "Feature", "geometry": {"type": "Point", "coordinates": [34.578567, 58.517792]}, "properties": {"name": "оп.39", "Unom": 6, "address": "нет данных"}}, {"type": "Feature", "geometry": {"type": "Point", "coordinates": [34.582279, 58.516119]}, "properties": {"name": "оп.44", "Unom": 6, "address": "нет данных"}}, {"type": "Feature", "geometry": {"type": "Point", "coordinates": [34.584671, 58.516685]}, "properties": {"name": "оп.52", "Unom": 6, "address": "нет данных"}}, {"type": "Feature", "geometry": {"type": "Point", "coordinates": [34.58723, 58.506472]}, "properties": {"name": "оп.73", "Unom": 6, "address": "нет данных"}}, {"type": "Feature", "geometry": {"type": "Point", "coordinates": [34.588292, 58.506926]}, "properties": {"name": "оп.75", "Unom": 6, "address": "нет данных"}}, {"type": "Feature", "geometry": {"type": "Point", "coordinates": [34.588201, 58.508268]}, "properties": {"name": "оп.77", "Unom": 6, "address": "нет данных"}}, {"type": "Feature", "geometry": {"type": "Point", "coordinates": [34.589553, 58.508299]}, "properties": {"name": "оп.83", "Unom": 6, "address": "нет данных"}}, {"type": "Feature", "geometry": {"type": "Point", "coordinates": [34.590036, 58.508081]}, "properties": {"name": "оп.84", "Unom": 6, "address": "нет данных"}}, {"type": "Feature", "geometry": {"type": "Point", "coordinates": [34.593126, 58.50833]}, "properties": {"name": "оп.87", "Unom": 6, "address": "нет данных"}}, {"type": "Feature", "geometry": {"type": "Point", "coordinates": [34.594016, 58.506632]}, "properties": {"name": "оп.89", "Unom": 6, "address": "нет данных"}}, {"type": "Feature", "geometry": {"type": "Point", "coordinates": [34.59319, 58.506391]}, "properties": {"name": "оп.90", "Unom": 6, "address": "нет данных"}}, {"type": "Feature", "geometry": {"type": "Point", "coordinates": [34.596033, 58.508212]}, "properties": {"name": "оп.93", "Unom": 6, "address": "нет данных"}}, {"type": "Feature", "geometry": {"type": "Point", "coordinates": [34.596151, 58.511043]}, "properties": {"name": "оп.96", "Unom": 6, "address": "нет данных"}}, {"type": "Feature", "geometry": {"type": "Point", "coordinates": [34.596548, 58.515991]}, "properties": {"name": "оп.107", "Unom": 6, "address": "нет данных"}}]}